region,district,class,lat,lon,employed,unemployed,poverty_incidence,poverty_intensity,illiterate_pop,uninsured_pop,m_0_14,f_0_14,m_15_64,f_15_64,m_65p,f_65p,total_pop,literacy_rate,uninsured_rate,elderly_share_65plus,unemployment_rate,geojson_district,geojson_area_deg2,pop_density_relative,illiteracy_rate,dependency_ratio,vulnerability_pc1,insurance_access_pc2,gistar_z,gistar_class
Ahafo,Asunafo North Municipal,Municipal,6.81509969999999,-2.67736640122449,51611,45446,26.1,42.0,39814,21534,27637,26564,46535,44897,2715,2910,151258,0.7367808644832009,0.1423660236152798,0.0371881156699149,0.468240312393748,ASUNAFO NORTH MUNICIPAL,0.1154639124809993,1310002.3786643378,0.2632191355167991,65.43223379123283,-0.8337867606712582,-0.3899314831689477,-0.329626,NOT_SIGNIFICANT
Ahafo,Asunafo South,District,6.56280465,-2.53279356335542,32671,25169,26.2,42.7,26493,43550,17439,16414,27748,26493,1769,1830,91693,0.711068456697894,0.4749544676256639,0.0392505425714067,0.4351486860304288,ASUNAFO SOUTH,0.0755043606983356,1214406.679984262,0.288931543302106,69.04739956859203,-0.5140933290342085,1.4043451148072554,-0.29463,NOT_SIGNIFICANT
Ahafo,Asutifi North,District,7.07651835,-2.52531850396715,24423,23087,26.6,43.1,18794,12723,13205,12841,23097,21584,1361,1468,73556,0.7444939909728643,0.1729702539561694,0.0384604926858447,0.4859398021469164,ASUTIFI NORTH,0.0766175699789784,960040.8890569304,0.2555060090271357,64.62478458405138,-0.5255935047515111,-0.6099983979479227,-0.538417,NOT_SIGNIFICANT
Ahafo,Asutifi South,District,6.84924284999999,-2.46125343688365,21582,20836,23.2,42.4,19701,14593,12878,12038,20319,19574,1194,1331,67334,0.7074137879822973,0.2167255769744854,0.0374996287165473,0.4912065632514498,ASUTIFI SOUTH,0.048854651350644,1378251.5715182226,0.29258621201770274,68.78650389792695,-0.5139187071943186,-0.19953983626163274,-0.35375,NOT_SIGNIFICANT
Ahafo,Tano North Municipal,Municipal,7.19329065,-2.2080833699397,31439,29602,21.6,42.3,22005,13235,16935,15862,27631,28903,1968,2539,93838,0.7655001172232997,0.1410409429015963,0.0480295828981862,0.4849527366851788,TANO NORTH MUNICIPAL,0.0685611134461927,1368676.7218803226,0.2344998827767003,65.98507093076734,-0.9340196620021132,-0.6657463897353316,-0.442045,NOT_SIGNIFICANT
Ahafo,Tano South Municipal,Municipal,7.16093674999999,-1.99681708617696,28999,26149,23.7,42.6,24275,17791,16367,15474,24906,26294,1636,2312,86989,0.7209417282644932,0.2045201117382657,0.0453850486843164,0.4741604409951404,TANO SOUTH MUNICIPAL,0.0400424343556178,2172420.3685382507,0.2790582717355068,69.900390625,-0.5403235672668538,-0.18267128702128965,-0.229974,NOT_SIGNIFICANT
Ashanti,Adansi Asokwa,District,6.2467263,-1.50841,23550,21838,32.4,43.3,20304,36029,13691,12765,20664,21335,1589,1800,71844,0.7173876732921329,0.5014893380101331,0.0471716496854295,0.4811403895302723,ADANSI ASOKWA,0.0487001672875422,1475231.0721195017,0.28261232670786707,71.06121574323198,0.12341992080218404,1.2225957634476212,-0.242896,NOT_SIGNIFICANT
Ashanti,Adansi North,District,6.3006124,-1.5897139446089,17411,18501,19.7,42.8,9833,14965,9247,8996,16537,16948,998,1429,54155,0.8184285846182254,0.2763364416951343,0.0448158064813959,0.5151759857429271,ADANSI NORTH,0.0210778295525662,2569287.310391343,0.18157141538177457,61.729132447364485,-1.0237668729277654,-0.4922706764001756,-0.456487,NOT_SIGNIFICANT
Ashanti,Adansi South,District,6.00427495,-1.39314032189093,29633,24270,35.0,43.2,23064,39272,16212,15085,24648,25348,1692,2215,85200,0.7292957746478873,0.4609389671361502,0.045856807511737,0.4502532326586646,ADANSI SOUTH,0.0621044993410317,1371881.279199191,0.2707042253521127,70.41363309064725,-0.018445099465623286,1.2556327268232983,-0.058783,NOT_SIGNIFICANT
Ashanti,Afigya Kwabre North,District,7.03891495,-1.62667127242319,21350,22931,25.2,43.7,17584,22087,15067,13982,20273,21082,1268,1658,73330,0.7602072821491885,0.3012000545479339,0.0399018137188054,0.5178519003635871,AFIGYA KWABRE NORTH,0.0152600918651426,4805344.597400594,0.23979271785081147,77.31834119211703,0.11638183595824288,-0.1300206211333202,-0.239377,NOT_SIGNIFICANT
Ashanti,Afigya Kwabre South,District,6.83998064999999,-1.60957900170106,75019,72938,13.0,43.3,31504,58599,43742,42968,68528,72634,2797,3998,234667,0.8657501906957519,0.2497112930237315,0.0289559247785159,0.4929675513831721,AFIGYA KWABRE SOUTH,0.0182478813633313,12859958.661916642,0.13424980930424812,66.23949788186623,-1.2801386729111257,-0.6662758861459798,-0.626573,NOT_SIGNIFICANT
Ashanti,Ahafo Ano North Municipal,Municipal,6.90966445,-2.23301229669742,33407,25324,26.5,41.2,23108,28414,17581,16430,27329,27509,1843,2050,92742,0.7508356515925902,0.3063768303465528,0.0419766664510146,0.4311862559806576,AHAFO ANO NORTH,0.048574909641502,1909257.2829154984,0.24916434840740975,69.11995331704293,-1.0437752638906634,0.8759986437328076,-0.358539,NOT_SIGNIFICANT
Ashanti,Ahafo Ano South East,District,6.94633355,-1.90095355028736,20560,17723,31.8,42.5,20459,20524,12966,12219,17786,17591,1319,1587,63468,0.6776485788113695,0.3233755593369887,0.0457868532173693,0.4629469999738787,AHAFO ANO SOUTH EAST,0.0561562842483613,1130202.9835040583,0.32235142118863047,79.40469796760607,0.18540279016189765,0.8460083751720988,-0.287236,NOT_SIGNIFICANT
Ashanti,Ahafo Ano South West,District,6.8289788,-2.00038660056909,22860,18251,31.9,41.8,20670,24676,12766,11893,19422,18720,1453,1516,65770,0.6857229740003041,0.3751862551315189,0.0451421620799756,0.4439444430930894,AHAFO ANO SOUTH WEST,0.0412869289111128,1592998.1167065504,0.31427702599969587,72.43458654501599,-0.29908776104422385,1.2336585571605552,-0.210319,NOT_SIGNIFICANT
Ashanti,Akrofuom,District,6.03262245,-1.67136425707588,16119,15681,37.0,44.2,14804,21116,9048,8443,16194,13524,1073,1009,49291,0.6996611957558174,0.4283946359375951,0.0422389482867054,0.4931132075471698,ADANSI AKROFUOM,0.0464268658212629,1061691.310151401,0.3003388042441826,65.86244027188908,0.41881376730665043,0.591763845829943,-0.290554,NOT_SIGNIFICANT
Ashanti,Amansie Central,District,6.20744165,-1.82814118592735,33580,27066,28.6,43.3,27396,31633,16778,15628,29576,26490,2039,2541,93052,0.7055839745518635,0.3399497055409878,0.0492197910845548,0.4462948916663918,AMANSIE CENTRAL,0.069440760529984,1340019.8858683407,0.2944160254481365,65.96867977027075,-0.36312044243378877,0.5305658201588522,-0.272609,NOT_SIGNIFICANT
Ashanti,Amansie South,District,6.30802585,-2.01186652006877,41010,34389,30.3,44.4,34142,54471,19293,18463,38951,33050,1531,1867,113155,0.6982722813839424,0.4813839423799213,0.0300296054085104,0.4560935821429992,AMANSIE SOUTH,0.0484722905929508,2334426.5066865985,0.3017277186160576,57.15753947861836,-0.2271081751721366,0.7945202038196086,-0.23924,NOT_SIGNIFICANT
Ashanti,Amansie West,District,6.43975084999999,-1.85237045719587,34157,37321,31.0,44.7,30406,48450,20820,20329,35110,32074,1803,2491,112627,0.7300292114679429,0.4301810400703206,0.0381258490415264,0.5221326841825457,AMANSIE WEST,0.0521628025039779,2159143.9607066927,0.26997078853205714,67.6396165753751,0.40083493386290653,0.20673028971260196,-0.324254,NOT_SIGNIFICANT
Ashanti,Asante Akim Central Municipal,Municipal,6.56465915,-1.25347851347396,29453,30820,16.9,42.6,15786,18044,15871,15529,27013,29228,1623,2409,91673,0.8278009882953541,0.19683003719743,0.0439824157603656,0.5113400693511191,ASANTE AKIM CENTRAL MUNICIPAL,0.0245612264576897,3732427.6195213576,0.1721990117046459,63.000302270585514,-1.2063983418749022,-0.8428780587625073,-0.468315,NOT_SIGNIFICANT
Ashanti,Asante Akim North Municipal,Municipal,6.906722,-0.958978,29855,26615,26.0,42.1,20318,28968,14574,14158,25316,26886,1799,2469,85202,0.7615314194502476,0.3399920189666909,0.0500927208281495,0.4713122011687621,ASANTE AKIM NORTH,0.0921367908902772,924733.7483401644,0.2384685805497524,63.21596873683001,-0.892361733219818,0.4545918144802869,-0.255189,NOT_SIGNIFICANT
Ashanti,Asante Akim South Municipal,Municipal,6.46141735,-1.11533920112058,43495,33950,24.6,42.2,31673,40319,23973,22215,34657,35653,3085,4050,123633,0.74381435377286,0.3261184311632008,0.0577111289057128,0.4383756214087417,ASANTE AKIM SOUTH,0.0943253466084401,1310708.1441557873,0.25618564622714,75.83985208362964,-0.6027145963001365,0.8183804669351464,-0.339418,NOT_SIGNIFICANT
Ashanti,Asokore Mampong Municipal,Municipal,6.7077852,-1.5665013,66200,62382,11.3,42.7,37038,38807,31486,31334,58782,62187,3238,4375,191402,0.8064910502502586,0.2027512774161189,0.0397749239819855,0.4851534429391361,ASOKORE MAMPONG MUNICIPAL,0.0019566973782447,97818907.5776726,0.19350894974974142,58.22400780365218,-1.6025135661863297,-0.8019205800535073,-0.977386,NOT_SIGNIFICANT
Ashanti,Asokwa Municipal,Municipal,6.6739843,-1.6026178,48298,38057,6.3,41.4,13484,17901,19479,19808,39593,41790,1928,3044,125642,0.8926791996306968,0.1424762420209802,0.0395727543337419,0.4407040704070407,ASOKWA  MUNICIPAL,0.0021843470476783,57519248.20441895,0.10732080036930325,54.383593625204284,-2.722144734825071,-0.7963155859130163,-1.044115,NOT_SIGNIFICANT
Ashanti,Atwima Kwanwoma,District,6.65,-1.73333,74959,74937,13.8,43.3,31864,61419,42664,42286,68316,73750,3143,4687,234846,0.8643195966718615,0.2615288316598962,0.0333409979305587,0.4999266157869456,ATWIMA KWANWOMA,0.0205723574305434,11415609.552424371,0.13568040332813847,65.3076738980474,-1.2401451249600492,-0.6575812956890024,-0.690622,NOT_SIGNIFICANT
Ashanti,Atwima Mponua,District,6.5558963,-2.17659077213842,54588,42035,25.1,42.4,45371,37467,30112,28519,47076,43265,3047,3235,155254,0.707762762956188,0.2413271155654604,0.0404627255980522,0.435041346263312,ATWIMA MPONUA,0.1539973859579531,1008159.9699516328,0.292237237043812,71.85331134257979,-0.5947670760010274,0.3699827694056564,-0.256018,NOT_SIGNIFICANT
Ashanti,Atwima Nwabiagya North,District,6.87764335,-1.74489585317473,48562,50393,13.5,43.1,24396,33196,28123,27947,46519,47225,2235,2976,155025,0.8426318335752299,0.2141332043218835,0.0336139332365747,0.5092516800565914,ATWIMA NWABIAGYA NORTH,0.0174244873018762,8896961.919981813,0.15736816642477014,65.37058371735792,-1.1952394340964776,-0.8784709768052484,-0.582561,NOT_SIGNIFICANT
Ashanti,Atwima Nwabiagya South Municipal,Municipal,7.0689359,-2.0226618,54304,50942,12.5,43.0,22396,37941,28597,28050,47365,52189,2372,3320,161893,0.8616617148363426,0.2343584960436831,0.0351590247879772,0.4840278965471372,ATWIMA NWABIAGYA SOUTH,0.0299651817463866,5402703.756986956,0.13833828516365743,62.61827751772907,-1.520108093137217,-0.6866665304287957,-0.574129,NOT_SIGNIFICANT
Ashanti,Bekwai Municipal,Municipal,6.43631235,-1.59282285301503,44017,45866,19.4,43.6,24658,38214,24713,23371,38899,43202,3004,4778,137967,0.8212761022563366,0.2769792776533519,0.0564047924503685,0.5102855934937641,BEKWAI MUNICIPAL,0.0437699694754583,3152092.6711488278,0.17872389774366337,68.04545620637995,-0.6759061592465319,-0.5203732006023094,-0.34011,NOT_SIGNIFICANT
Ashanti,Bosome Freho,District,6.3681227,-1.36632312680072,22887,15579,31.3,41.0,17772,30539,12446,11347,17554,17537,1427,1948,62259,0.7145472943670794,0.4905154274883953,0.0542090300197561,0.4050070191857745,BOSOME FREHO,0.0465045107748709,1338773.3568770734,0.2854527056329206,77.42156108403864,-0.5764927751367713,2.2624143904147154,-0.366263,NOT_SIGNIFICANT
Ashanti,Bosomtwi,District,6.1777503,-0.1969922,52679,52871,16.1,43.8,22913,46767,30581,29049,47098,51530,2749,4173,165180,0.8612846591597045,0.2831274972756992,0.0419057997336239,0.500909521553766,BOSOMTWE,0.0345561033339567,4780052.843449074,0.13871534084029546,67.47779535223263,-0.9467147630756741,-0.5880563040683686,-0.785529,NOT_SIGNIFICANT
Ashanti,Ejisu Municipal,Municipal,6.7139918,-1.4665782,58604,59932,13.5,43.6,26943,39195,31700,30487,53047,57696,3089,4704,180723,0.8509154894507063,0.216878869872678,0.0431212407939221,0.5056016737531214,EJISU MUNICIPAL,0.033649086116628,5370814.511086933,0.14908451054929373,63.19135295233107,-1.1974054904746443,-1.0002865388896744,-0.6512,NOT_SIGNIFICANT
Ashanti,Ejura Sekyedumase Municipal,Municipal,7.38567515,-1.39945747215309,43982,38761,25.0,42.2,49399,46225,28117,26812,38155,39464,2279,2845,137672,0.6411833924109478,0.3357618106804579,0.0372188970887326,0.4684505033658436,EJURA-SEKYEDUMASE,0.1098095068751074,1253734.798723594,0.3588166075890522,77.36894317113078,-0.05665535280170376,0.8525969932448458,-0.131397,NOT_SIGNIFICANT
Ashanti,Juaben Municipal,Municipal,6.0721368,-0.260652306105858,21253,18934,20.9,43.1,14046,19449,12078,11664,17669,19128,1456,1934,63929,0.7802875064524707,0.3042281280795882,0.0530275774687544,0.4711473859705875,JUABEN MUNICIPAL,0.0140060870946223,4564372.588011788,0.2197124935475293,73.73427181563714,-0.5824025644536867,0.1605646847749762,-0.554155,NOT_SIGNIFICANT
Ashanti,"Kumasi Metropolitan Area (KMA)-Bantama, Manhyia North, Manhyia South, Nhyiaeso, & Subin",Metropolitan,6.698152,-1.621229,164504,153397,8.9,42.3,48041,100117,62261,63783,144185,155625,7216,10875,443945,0.8917861446800842,0.2255166743628152,0.0407505434231717,0.4825307249741272,KUMASI METROPOLITAN,0.0017687184877175,250998111.39131263,0.10821385531991579,48.075447783596275,-2.405662849545586,-0.9337211593476549,-1.190242,NOT_SIGNIFICANT
Ashanti,Kwabre East,Municipal,6.7897864,-1.53792852576917,99847,89434,10.6,43.3,38251,72440,54194,53339,85713,93804,3777,5987,296814,0.8711280465207167,0.2440585686658985,0.0328960224248182,0.4724932771910545,KWABRE EAST,0.0100620366552028,29498401.781961616,0.12887195347928326,65.34032988519193,-1.514852346686288,-0.6191889987674852,-0.688061,NOT_SIGNIFICANT
Ashanti,Kwadaso Municipal,Municipal,6.68059249999999,-1.67467000057054,53272,55768,9.5,42.4,13021,33490,22551,22935,50312,52889,2342,3497,154526,0.9157358632204288,0.2167272821402223,0.0377865213621008,0.5114453411592076,KWADASO MUNICIPAL,0.0052407879799067,29485260.72652691,0.08426413677957123,49.733045222430015,-2.252727457612132,-1.1822612477203343,-1.033204,NOT_SIGNIFICANT
Ashanti,Mampong Municipal,Municipal,7.056139,-1.40425,35620,41077,22.5,42.6,24107,34749,20344,19591,34298,36738,2323,3338,116632,0.7933071541257974,0.2979371013101036,0.0485372796488099,0.5355750550869004,MAMPONG MUNICIPAL,0.0548872997044016,2124936.016676491,0.20669284587420256,64.18717270116561,-0.6979809467671593,-0.35514277943959405,-0.123748,NOT_SIGNIFICANT
Ashanti,Obuasi East,Municipal,6.1796409,-1.60356394182495,29615,31180,13.1,42.7,14306,16076,15730,15876,27879,29934,1318,1664,92401,0.8451748357701756,0.1739808010735814,0.032272378004567,0.512871124270088,OBUASI EAST,0.0061290001880793,15076031.516480556,0.1548251642298244,59.82737446595057,-1.4893067417729315,-1.1239830759480045,-0.41966,NOT_SIGNIFICANT
Ashanti,Obuasi Municipal,Municipal,6.211542,-1.6894045,36104,34814,11.1,42.8,12845,20504,16924,16455,33517,34084,1444,1873,104297,0.8768420951705227,0.1965924235596421,0.0318034075764403,0.4909049888603739,OBUASI MUNICIPAL,0.0119075467162836,8758899.081821179,0.1231579048294773,54.283220662416234,-1.9247186713091922,-1.0686660174645068,-0.472347,NOT_SIGNIFICANT
Ashanti,Offinso Municipal,Municipal,7.05794129999999,-1.73462655987467,42048,43960,23.5,42.8,34107,42296,26183,25081,38040,42369,2346,3253,137272,0.7515370942362609,0.3081181887056355,0.0407876333119645,0.5111152450934797,OFFINSO MUNICIPAL,0.0479502641262978,2862799.6633852622,0.24846290576373908,70.71720827270579,-0.37130477025881603,0.006668690274012615,-0.194469,NOT_SIGNIFICANT
Ashanti,Offinso North,District,7.27974815,-1.79832745610104,28302,22051,34.3,41.5,31198,27930,16942,16145,22483,24424,1532,1914,83440,0.6261025886864813,0.3347315436241611,0.0412991371045062,0.4379282267193613,OFFINSO NORTH,0.0774783502681462,1076946.0076424065,0.3738974113135187,77.88389792568273,0.059158963831313645,1.3611916429685806,-0.312484,NOT_SIGNIFICANT
Ashanti,Oforikrom Municipal,Municipal,6.672717,-1.5504236985326,64286,95659,10.0,42.8,21529,49047,26682,26499,77870,75115,2874,4086,213126,0.898984638195246,0.2301314715238872,0.0326567382675037,0.5980743380537059,OFORIKROM MUNICIPAL,0.0037098692810442,57448385.33502486,0.10101536180475401,39.311697225218154,-2.0272164658619714,-1.9275245810813664,-0.981583,NOT_SIGNIFICANT
Ashanti,Old Tafo Municipal,Municipal,6.74083555,-1.60465968075918,42408,35138,9.2,42.9,13412,28189,18483,18339,34972,38512,1631,2431,114368,0.882729434806939,0.2464762870733072,0.0355169278119753,0.4531245970133856,OLD TAFO MUNICIPAL,0.0023810686826823,48032213.783585005,0.117270565193061,55.63660116487943,-2.107494680636043,-0.611233519109783,-1.00933,NOT_SIGNIFICANT
Ashanti,Sekyere Afram Plains,District,7.20286155,-0.592081996515861,10858,7985,50.5,40.8,17179,21066,7452,6931,9951,8183,410,299,33226,0.4829651477758382,0.6340215493890327,0.0213387106482874,0.4237647932919386,SEKYERE AFRAM PLAINS NORTH,0.2887409512113359,115072.0043714241,0.5170348522241618,83.22488143818242,1.1878499932964512,3.602670457345018,0.110317,NOT_SIGNIFICANT
Ashanti,Sekyere Central,District,7.21625465,-1.09955606489201,23803,21724,39.8,42.4,24179,38329,14277,13424,20482,20859,1731,2455,73228,0.669812093734637,0.5234200032774349,0.0571639263669634,0.4771673951720956,SEKYERE CENTRAL,0.133603655338462,548098.7762983681,0.330187906265363,77.13166106286738,0.5441274124573977,1.835094430286551,0.058689,NOT_SIGNIFICANT
Ashanti,Sekyere East,District,6.77947295,-1.29935419961981,23709,24423,17.3,42.5,12874,17639,13736,12921,20506,23780,1489,2357,74789,0.8278623861797858,0.2358501918731364,0.0514246747516346,0.5074171029668412,SEKYERE EAST,0.0195690296018291,3821804.224416387,0.1721376138202142,68.87729756582216,-1.0250333399730012,-0.49171721072172614,-0.41821,NOT_SIGNIFICANT
Ashanti,Sekyere Kumawu,District,6.9098849,-1.23942940155571,20110,20475,23.9,42.9,13090,23038,12071,11740,17308,19228,1511,2538,64396,0.7967265047518479,0.3577551400708118,0.0628765761848562,0.5044967352470124,SEKYERE KUMAWU,0.0471972975159635,1364400.1540177015,0.20327349524815208,76.25355813444274,-0.3134135942167989,0.3125061324855001,-0.139815,NOT_SIGNIFICANT
Ashanti,Sekyere South,District,6.99532965,-1.50292100938884,36646,41020,22.6,42.8,21298,32338,21744,20666,33678,37497,2643,3848,120076,0.8226290016322996,0.2693127685798994,0.054057430294147,0.5281590399917596,SEKYERE SOUTH,0.0341208960829497,3519133.838340255,0.17737099836770043,68.7053038285915,-0.6389937212792458,-0.4472504982676923,-0.358362,NOT_SIGNIFICANT
Ashanti,Suame Municipal,Municipal,6.738487,-1.62476687694823,52028,40036,8.7,42.7,14098,32285,21799,22427,41237,46222,1842,2763,136290,0.8965588084232152,0.2368845843422114,0.0337882456526524,0.4348713938129996,SUAME MUNICIPAL,0.0022461347389644,60677570.955889165,0.10344119157678477,55.833018900284706,-2.2984783973131755,-0.5199587464878616,-1.007978,NOT_SIGNIFICANT
Bono,Banda,District,8.1645269,-2.3569966,7746,10025,35.7,43.7,11732,6648,5465,4943,8765,7659,583,764,28179,0.5836615919656482,0.2359203662301714,0.0478015543489832,0.5641213212537279,BANDA,0.188611488452878,149402.35205789248,0.41633840803435185,71.57208962493911,1.0955768833366089,-0.4482118567627132,0.118366,NOT_SIGNIFICANT
Bono,Berekum East Municipal,Municipal,7.4848835,-2.56459096524003,35109,37059,12.6,41.7,15663,12247,17184,16900,31142,36153,1837,3036,106252,0.8525863042578022,0.1152637126830553,0.0458626661145201,0.5135101429996675,BEREKUM EAST MUNICIPAL,0.0378243382805187,2809090.7820249824,0.14741369574219776,57.88988780741511,-1.8394409836447532,-1.2545751839888006,-0.589309,NOT_SIGNIFICANT
Bono,Berekum West,District,7.47199419999999,-2.71078914019081,16162,16585,14.8,41.6,11329,6176,8505,8212,14064,15958,1024,1701,49464,0.7709647420346111,0.1248584829370855,0.0550905709202652,0.5064586068952881,BEREKUM WEST,0.0328744191189187,1504634.9509955046,0.22903525796538893,64.75917660382386,-1.3126949597037658,-0.8635505973297916,-0.708424,NOT_SIGNIFICANT
Bono,Dormaa Central Municipal,Municipal,7.23948645,-2.85657511014467,39452,35163,15.8,41.7,24994,19538,19428,18659,33320,35322,2360,3613,112702,0.7782293127007507,0.1733598338982449,0.0529981721708576,0.471259130201702,DORMAA MUNICIPAL,0.0990339536273001,1138013.7404605448,0.22177068729924931,64.18810640715597,-1.443154409635704,-0.4254717069333225,,EXCLUDED
Bono,Dormaa East,District,7.26432845,-2.64146295349265,22570,22261,19.5,41.7,16759,9261,11782,11286,19943,21068,1611,2209,67899,0.753177513659995,0.1363937613219635,0.0562600332847317,0.4965537239856349,DORMAA EAST,0.0466636593880487,1455072.3387413968,0.24682248634000503,65.5628977591378,-1.0702689733881912,-0.655857229949424,-0.702878,NOT_SIGNIFICANT
Bono,Dormaa West,District,6.97538415,-2.9463116043167,17716,12431,23.2,40.8,14423,9745,9360,8406,15341,13222,821,763,47913,0.6989752259303321,0.2033894767599607,0.0330599211070064,0.4123461704315521,DORMAA WEST,0.0311572329978506,1537780.9705792938,0.3010247740696679,67.7449847705073,-1.2541545119246758,0.5846576896025021,-0.424386,NOT_SIGNIFICANT
Bono,Jaman North,District,7.9132614,-2.69723280400663,36119,38856,14.5,42.4,30773,8231,21157,20397,34679,35066,2077,3153,116529,0.7359198139518919,0.0706347776090072,0.0448815316359017,0.5182527509169723,JAMAN NORTH,0.0845344912882168,1378478.751385623,0.2640801860481081,67.07864363036778,-0.9128477796501611,-1.2865536926445156,-0.346124,NOT_SIGNIFICANT
Bono,Jaman South,Municipal,7.62036559999999,-2.7963718064665,35814,35016,15.6,42.1,28919,9686,19952,18986,31156,34312,2169,3193,109768,0.736544348079586,0.0882406530136287,0.0488484804314554,0.4943667937314697,JAMAN SOUTH MUNICIPAL,0.061868308368103,1774220.1604560462,0.263455651920414,67.66664630048268,-1.0273472228736438,-0.9550757329134649,-0.687116,NOT_SIGNIFICANT
Bono,Sunyani Municipal,Municipal,7.3384389,-2.3309226,64799,68142,10.9,41.5,28006,21645,30599,30055,62754,63470,3005,3712,193595,0.8553371729641778,0.1118055734910509,0.0346961440119837,0.5125732467786461,SUNYANI MUNICIPAL,0.041484629767206,4666668.139172804,0.14466282703582223,53.374160223095444,-2.1130893448545502,-1.3341458771850372,-0.603694,NOT_SIGNIFICANT
Bono,Sunyani West Municipal,Municipal,7.35779433737633,-2.34687996021684,40876,51557,17.6,43.1,28330,21227,22089,21500,42769,43997,2393,3274,136022,0.791724868036053,0.1560556380585493,0.0416623781447118,0.5577769844103296,SUNYANI WEST,0.086766773590158,1567673.8268786909,0.20827513196394698,56.76878039785169,-0.9520748128458345,-1.5036108222364368,-0.570417,NOT_SIGNIFICANT
Bono,Tain,District,7.9614185,-2.1422727,39176,34283,21.5,41.9,42235,22022,21764,20345,34230,33737,2388,3104,115568,0.634544164474595,0.1905544787484424,0.0475218053440398,0.4666957078097987,TAIN,0.1499963911655673,770471.8700360935,0.36545583552540495,70.03545838421587,-0.53241548446291,0.044104698137973505,-0.300949,NOT_SIGNIFICANT
Bono,Wenchi Municipal,Municipal,7.80281055,-2.08141333112632,38543,39547,23.6,42.2,42124,25271,23537,23131,35042,37424,2381,3243,124758,0.6623543179595697,0.2025601564629122,0.0450792734734445,0.5064284799590216,WENCHI MUNICIPAL,0.0938788254383284,1328925.8724477424,0.33764568204043033,72.16073744928656,-0.21795811883661148,-0.19172944706332495,-0.282457,NOT_SIGNIFICANT
Bono East,Atebubu Amantin Municipal,Municipal,7.72813859999999,-1.09550967027384,47541,38871,28.8,41.5,59415,36951,29821,28714,41262,40752,1910,2488,144947,0.5900915507047404,0.2549276632148302,0.0303421250526054,0.4498333564782669,ATEBUBU AMANTIN,0.2151979963014558,673551.8103846741,0.4099084492952596,76.73445997024898,-0.03774233240578457,0.8464744979367441,0.089798,NOT_SIGNIFICANT
Bono East,Kintampo North Municipal,Municipal,8.053714,-1.728919,40030,45840,28.1,43.4,56833,30289,27626,26754,39911,40681,2394,2884,140250,0.5947736185383244,0.215964349376114,0.037632798573975,0.5338302084546407,KINTAMPO NORTH MUNICIPAL,0.4014372190868593,349369.6980041453,0.40522638146167556,74.02471709350804,0.63927005787299,-0.3641208552057783,0.823805,NOT_SIGNIFICANT
Bono East,Kintampo South,District,7.94321545,-1.73400515142892,28927,25110,26.0,42.3,35811,16394,17639,16708,25454,24559,1961,2063,88384,0.5948248551774077,0.1854860608254887,0.045528602461984,0.4646816070470233,KINTAMPO SOUTH,0.1241420371275747,711958.6728641486,0.4051751448225923,76.72205226641073,0.06915565573569754,0.19257382432659664,0.146817,NOT_SIGNIFICANT
Bono East,Nkoranza North,District,7.7184776,-1.64389618122841,18832,16615,25.8,41.4,19620,10022,10941,10080,16455,15957,1348,1687,56468,0.6525465750513566,0.1774810512148473,0.0537472550825246,0.4687279600530369,NKORANZA NORTH,0.1136910752148141,496679.2678607909,0.3474534249486434,74.21942490435642,-0.3991888498639968,0.1864796142774028,-0.279567,NOT_SIGNIFICANT
Bono East,Nkoranza South Municipal,Municipal,7.45296465,-1.67701851419084,38611,33973,18.0,41.6,34349,16840,21684,20374,33264,34501,2164,2655,114642,0.7003803143699516,0.1468920639905095,0.0420352052476404,0.4680508100958889,NKORANZA SOUTH,0.0756083153405215,1516261.795857772,0.29961968563004837,69.1758282299122,-0.9849092408898471,-0.27557958580275616,-0.355106,NOT_SIGNIFICANT
Bono East,Pru East,District,7.9636217,-0.9549861,32906,27206,30.3,41.2,44232,28477,20812,19916,28721,28766,1175,1450,100840,0.5613645378817929,0.28239785799286,0.0260313367711225,0.452588501463934,PRU EAST,0.1355819459141973,743756.8425505288,0.43863546211820714,75.413571764051,0.022886722838315558,1.065681729467261,0.52323,NOT_SIGNIFICANT
Bono East,Pru West,District,8.03487795,-1.31329234137589,23430,18389,38.3,40.8,33051,28780,14399,13602,20066,19335,1124,1294,69820,0.5266256087081065,0.412202807218562,0.0346319106273274,0.4397283531409168,PRU WEST,0.1287446816887376,542313.6636339031,0.4733743912918935,77.20362427349559,0.38861503539868164,2.0667349318458497,0.176042,NOT_SIGNIFICANT
Bono East,Sene East,District,7.6658435,-0.182426172494555,23216,17927,49.5,41.5,35965,31452,16311,14627,21108,18084,1014,937,72081,0.5010474327492682,0.4363424480792441,0.0270667721036056,0.4357241815132586,SENE EAST,0.3600178480678145,200215.0737438509,0.4989525672507318,83.91763625229639,1.264892685193287,2.38272758522203,0.524886,NOT_SIGNIFICANT
Bono East,Sene West,District,7.74897775,-0.618112944814146,25949,16360,26.8,41.0,33389,14249,14065,13730,20496,19425,1064,1324,70104,0.5237218988930732,0.2032551637567043,0.0340636768230058,0.3866789571958685,SENE WEST,0.2675068774981242,262064.29029284147,0.4762781011069268,75.60682347636583,-0.3553292063642634,1.160184060808217,0.568293,NOT_SIGNIFICANT
Bono East,Techiman Municipal,Municipal,7.5279454,-1.97466940505838,89186,68047,9.8,41.4,57462,28058,43306,42796,71814,77235,3579,4605,243335,0.763856411942384,0.1153060595475373,0.0336326463517373,0.43277810637716,TECHIMAN MUNICIPAL,0.0531895421009034,4574865.478976683,0.23614358805761604,63.258391535669475,-1.9178267588538205,-0.476028608606451,-0.433848,NOT_SIGNIFICANT
Bono East,Techiman North,District,7.70365499999999,-1.98577027897075,34326,31765,15.0,41.8,27555,15369,18455,17983,30106,31934,1687,2364,102529,0.731246769206761,0.1498990529508724,0.0395107725619093,0.4806251985898231,TECHIMAN NORTH,0.0319226515625867,3211794.602932157,0.268753230793239,65.26273372018053,-1.2244100222336904,-0.545695364656347,-0.397425,NOT_SIGNIFICANT
Central,Abura Asebu Kwamankese,District,5.2698722,-1.18890498156872,39299,40203,28.0,44.1,33503,44229,22987,21976,33681,37927,2976,4918,124465,0.7308239264050135,0.3553529104567549,0.06342345237617,0.5056853915624764,ABURA-ASEBU-KWAMANKESE,0.0307442796257904,4048395.393060056,0.2691760735949865,73.81437828175623,0.25373163864353293,0.14653820166764378,-0.185267,NOT_SIGNIFICANT
Central,Agona East,District,5.63553575,-0.654757357749996,32681,31928,25.9,43.6,22438,53181,17280,16748,27957,31096,2242,3314,98637,0.7725194399667468,0.5391587335381246,0.0563277471942577,0.4941726384868981,AGONA EAST,0.0267290845844458,3690249.835843557,0.22748056003325323,67.03131085634938,-0.2955937719520015,1.0094963940001516,-0.413576,NOT_SIGNIFICANT
Central,Agona West Municipal,Municipal,4.8901537,-1.9664135,47040,43603,21.0,43.7,26617,49785,23329,22597,39083,44191,2961,4408,136569,0.8051021827794009,0.3645410012521143,0.0539580724761842,0.4810410070275697,AGONA WEST MUNICIPAL,0.0290852219318753,4695477.322465607,0.19489781722059907,63.99956769219685,-0.7818256755457105,0.04821560963885588,-0.226255,NOT_SIGNIFICANT
Central,Ajumako Enyan Essiam,District,5.41243515,-0.984801059019988,38466,38589,29.6,43.5,29157,49126,22490,21041,31659,36846,3112,5438,120586,0.7582057618629028,0.4073938931550926,0.0709037533378667,0.5007981312049834,AJUMAKO-ENYAN-ESSIAM,0.0425464303349554,2834221.321287408,0.24179423813709722,76.02510765637544,0.1550335718421105,0.5843319169331063,0.116479,NOT_SIGNIFICANT
Central,Asikuma Odoben Brakwa,District,5.62649825,-1.02551876426311,43495,36507,29.0,42.3,32209,46532,24263,22728,34621,38201,2939,4241,126993,0.7463718472671722,0.3664138968289591,0.0565385493688628,0.4563260918477038,ASIKUMA-ODOBEN-BRAKWA,0.063082896732129,2013113.008098763,0.2536281527328278,74.38823432479195,-0.3747698515627951,0.9093011872278853,-0.214807,NOT_SIGNIFICANT
Central,Assin Central Municipal,Municipal,5.73294244999999,-1.31730368183195,31134,25993,18.1,42.8,12994,30642,15976,15650,26152,27674,1421,1880,88753,0.8535936813403491,0.3452503013982625,0.0371931089653307,0.4550037635443835,ASSIN FOSU,0.0227669296955235,3898329.778628464,0.14640631865965092,64.88871549065507,-1.3522131679992266,0.2203321577646475,-0.28474,NOT_SIGNIFICANT
Central,Assin North,District,5.82545685,-1.37392719579152,29624,21458,31.9,42.0,22155,38011,15174,14283,23465,23635,1830,2152,80539,0.7249158792634625,0.4719576850966612,0.049441885297806,0.420069691867977,ASSIN NORTH,0.0592955963193033,1358262.7547297464,0.27508412073653754,70.99575371549895,-0.5102794600519329,1.7352071688861852,-0.166148,NOT_SIGNIFICANT
Central,Assin South,District,5.52889644999999,-1.2709401638536,35793,29955,27.4,41.7,27205,38472,20688,19559,29056,31148,2339,3205,105995,0.7433369498561253,0.3629605170055191,0.0523043539789612,0.4556032122650119,ASSIN SOUTH,0.0898876731062561,1179193.9465904678,0.2566630501438747,76.05973025048169,-0.5101429177854284,1.037581373836498,-0.153031,NOT_SIGNIFICANT
Central,Awutu Senya West,District,5.61965885,-0.520145612112832,54977,45374,22.5,44.5,40850,92561,30859,30250,45045,49125,2315,3866,161460,0.7469961600396383,0.5732751145794625,0.0382819274123621,0.4521529431694751,,,,0.2530038399603617,71.45587766804715,-0.17286173744766453,1.3274159531955971,,EXCLUDED
Central,Awutu Senya East Municipal,Municipal,5.40379055,-0.518157686947431,84690,72118,10.6,42.9,24484,99262,39763,39956,72810,77543,2957,3498,236527,0.8964853906742147,0.4196645626080743,0.0272907532755245,0.459912759553084,AWUTU SENYA EAST,0.0088174310251172,26824933.3991082,0.10351460932578527,57.31445331985394,-1.957525714707383,0.2204260176785777,-0.807152,NOT_SIGNIFICANT
Central,Cape Cape Metropolitan Area (CCMA)-Cape Coast South & Cape Coast North,Metropolitan,5.1115501,-1.2484127,67570,65035,12.9,44.3,20509,51556,27622,27138,61645,64688,3523,2749,187365,0.8905398553625277,0.2751634510180663,0.0334747684999866,0.4904415368952905,CAPE COAST METROPOLITAN,0.0099865894296384,18761660.45676544,0.10946014463747233,48.31041770558762,-1.7368832752073033,-1.1068622793016945,-0.226751,NOT_SIGNIFICANT
Central,Effutu Municipal,Municipal,5.38339225,-0.597395635326539,27520,52842,21.7,44.2,20228,32581,14186,14268,39432,36492,1613,2825,108816,0.8141082193795031,0.2994136891633583,0.0407844434641964,0.6575495881137852,EFFUTU MUNICIPAL,0.0069540777895809,15647797.348921794,0.18589178062049694,43.32226963805911,-0.5587669837884928,-1.9110871319177043,-0.574472,NOT_SIGNIFICANT
Central,Ekumfi,District,5.28914455,-0.908864632637807,17067,18338,31.5,45.6,18491,33670,10736,10600,14073,16944,1575,2813,56741,0.6741157187924076,0.5933980719409245,0.0773338503022505,0.5179494421691851,EKUMFI,0.0225792206038635,2512974.251657343,0.3258842812075924,82.93516458716188,1.3478449317754553,1.2081360119774507,0.287638,NOT_SIGNIFICANT
Central,Gomoa Central,District,5.47699369999999,-0.589745989100534,28310,24080,18.8,44.1,17534,37766,15233,14969,21856,26134,1504,2896,82592,0.7877034095311894,0.4572597830298334,0.0532739248353351,0.4596297003244894,GOMOA CENTRAL,0.0099149050454445,8330084.818910812,0.21229659046881055,72.10252135861637,-0.5176536096589879,0.6976156904412244,-0.2325,NOT_SIGNIFICANT
Central,Gomoa East,District,5.47699369999999,-0.589745989100534,101923,95607,14.4,43.7,43210,137369,55840,55327,93198,96950,3200,4182,308697,0.8600245548223663,0.4449962260728157,0.0239134167160678,0.4840125550549283,GOMOA EAST,0.0440602297460468,7006250.348199712,0.13997544517763372,62.34564654900393,-1.2262048680007918,0.21617793440081362,-0.48669,NOT_SIGNIFICANT
Central,Gomoa West,District,5.38725545,-0.833638570821268,41686,40125,28.3,44.4,39425,65362,24256,23445,32103,40607,3061,6040,129512,0.6955880536166532,0.5046791030946939,0.070271480634999,0.4904597181308137,GOMOA WEST,0.0275118921506167,4707491.556413961,0.3044119463833468,78.12130380965479,0.5688630197791726,1.0451430304615472,-0.061918,NOT_SIGNIFICANT
Central,Komenda Edina Eguafo Abirem Municipal,Municipal,5.1302015,-1.43995928979516,53152,53030,25.1,44.2,43258,75202,30377,29458,46636,50105,3557,5884,166017,0.7394363227862206,0.4529777071022847,0.0568676701783552,0.4994255146823378,KOMENDA-EDINA-EGUAFO-ABIREM MUNICIPAL,0.0369197169033648,4496702.952369318,0.2605636772137794,71.6097621484169,0.06795522884803437,0.5475170480342124,-0.270672,NOT_SIGNIFICANT
Central,Mfantsiman Municipal,Municipal,5.27644145,-1.03472089878279,53153,55811,24.0,44.8,39497,67043,30395,29546,44225,55585,3413,5741,168905,0.7661584914596963,0.3969272668067848,0.0541961457624108,0.5121966888146544,MFANTSEMAN MUNICIPAL,0.0245385146985546,6883260.950180858,0.23384150854030372,69.22653040777476,0.03712776016166925,-0.036003137434321986,0.244982,NOT_SIGNIFICANT
Central,Twifo Ati Morkwa,District,5.61529845,-1.57822136908747,31704,30813,34.1,42.7,27448,44389,19741,18593,28331,30151,1926,2109,100851,0.7278361146642076,0.4401443713993911,0.0400095189933664,0.4928739382887854,TWIFO ATTI-MORKWA,0.0780198787848531,1292632.1031349676,0.2721638853357924,72.44793269724018,0.09778688697041014,1.0097287769764711,-0.172617,NOT_SIGNIFICANT
Central,Twifo Heman Lower Denkyira,District,5.49471475,-1.53636464977824,22649,19075,32.1,42.4,17101,36601,12495,11856,19039,19664,1349,1672,66075,0.7411880438895195,0.553931138857359,0.0457207718501702,0.457170932796472,TWIFO HEMANG LOWER DENKYIRA,0.0469771398253464,1406535.183828908,0.25881195611048047,70.72319975195721,-0.2760895797585689,1.7818953588376147,-0.176419,NOT_SIGNIFICANT
Central,Upper Denkyira East Municipal,Municipal,5.83523424999999,-1.73920835777296,34729,35865,24.3,43.8,23359,30732,20144,19403,33371,33259,1765,2199,110141,0.7879173059986744,0.27902415994044,0.035990230704279,0.5080460095758846,UPPER DENKYIRA EAST MUNICIPAL,0.04100009072559,2686359.9092295626,0.21208269400132562,65.30241632898094,-0.43714095922134144,-0.47008434120836806,-0.057515,NOT_SIGNIFICANT
Central,Upper Denkyira West,District,6.10783305,-2.06931071266353,33332,25814,24.5,43.6,25637,44004,16093,15786,30896,25738,1148,1364,91025,0.7183521010711342,0.4834276297720406,0.0275968140620708,0.4364454062827579,UPPER DENKYIRA WEST,0.0473258101511229,1923369.081466009,0.28164789892886577,60.72500618003319,-0.6651746411225452,1.056700356095717,-0.157564,NOT_SIGNIFICANT
Eastern,Abuakwa North Municipal,Municipal,6.2336986,-0.382588987736012,25086,26833,15.7,42.9,11029,15507,12352,11924,22357,24610,2063,2889,76195,0.8552529693549445,0.2035172911608373,0.0649911411509941,0.5168242839808163,ABUAKWA NORTH,0.0129895290175422,5865878.57782213,0.14474703064505545,62.23092809845211,-1.2717051112999502,-0.9814787773167272,-0.75051,NOT_SIGNIFICANT
Eastern,Abuakwa South Municipal,Municipal,6.1727705,-0.470361048613095,29553,31123,21.1,43.4,17315,19569,14490,13885,27170,27633,2484,3389,89051,0.8055608583845213,0.2197504800619869,0.06595097191497,0.5129375700441691,ABUAKWA SOUTH,0.028558452974045,3118201.11827951,0.1944391416154787,62.49292921920333,-0.7957736274526266,-0.8290572079348648,-0.669965,NOT_SIGNIFICANT
Eastern,Achiase,District,5.8354534,-0.9966928,17382,18733,29.9,44.6,14484,17894,10513,9720,15422,17107,1477,2109,56348,0.7429544970540214,0.317562291474409,0.0636402356782849,0.5187041395542018,ACHIASE,0.0338465782689536,1664806.396447057,0.2570455029459786,73.22389252666851,0.4275642293551431,-0.23081277972892855,-0.085407,NOT_SIGNIFICANT
Eastern,Akwapim North Municipal,Municipal,5.9014961,-0.14597334325382,30652,42982,20.1,43.2,15299,22608,16126,15555,30768,35625,2652,4589,105315,0.854731044960357,0.2146702748896168,0.0687556378483596,0.5837249096884591,AKWAPEM NORTH,0.0250376950113117,4206257.802582054,0.145268955039643,58.62365008359315,-0.8417810146872555,-1.4298851845552036,-0.662992,NOT_SIGNIFICANT
Eastern,Akwapim South Municipal,Municipal,8.25846,0.508747,25689,27716,19.4,43.5,11667,23583,11963,11554,23466,26024,1672,2243,76922,0.848326876576272,0.3065832921660903,0.0508957125399755,0.5189776238179946,AKWAPEM SOUTH,0.0183071335116495,4201750.096543054,0.15167312342372796,55.42937967266114,-1.1562311581129745,-0.6828641074181562,-0.507071,NOT_SIGNIFICANT
Eastern,Akyemansa,District,6.0815994,-1.11546439579942,32660,25244,23.6,42.4,25196,24107,17060,16074,25881,26687,2325,3011,91038,0.7232364507128891,0.2648015114567543,0.0586128869263384,0.4359629731970157,AKYEM MANSA,0.0500014577739227,1820706.916418726,0.2767635492871109,73.18140313498706,-0.6462759053330225,0.4588788013057519,-0.55114,NOT_SIGNIFICANT
Eastern,Asene Manso Akroso,District,5.85516295,-0.8089562448565,26201,23526,25.7,42.5,18687,23397,14244,13527,21551,23476,2013,2687,77498,0.7588711966760433,0.301904565279104,0.060646726367132,0.4731031431616627,ASENE AKROSO MANSO,0.0342128455965631,2265172.5879178294,0.2411288033239567,72.11450907233437,-0.5128342646193728,0.3349829881989485,-0.316784,NOT_SIGNIFICANT
Eastern,Asuogyaman,District,6.36279085,0.0952598707485648,32892,35186,21.8,43.1,18900,21671,16728,16450,29528,32546,2467,3537,101256,0.8133443944062574,0.2140218851228569,0.059295251639409,0.5168483210435089,ASUOGYAMAN,0.0626075989305907,1617311.663912497,0.1866556055937426,63.12143570577054,-0.8259151298990854,-0.8081116990437668,-0.262286,NOT_SIGNIFICANT
Eastern,Atiwa East,District,6.3954833,-0.597296233359515,22465,19027,18.4,42.4,12972,11549,12055,11100,18975,18809,1641,2067,64647,0.7993410367070397,0.1786471143285844,0.0573576500069608,0.4585703268099875,ATIWA EAST,0.0474126777603003,1363496.0743375337,0.2006589632929603,71.09623120897734,-1.0840081164516404,-0.3327338905693608,-0.535771,NOT_SIGNIFICANT
Eastern,Atiwa West,District,6.20778059999999,-0.635808682575408,22581,16870,18.9,42.5,12526,18236,11218,10550,18405,17234,1665,2147,61219,0.7953903199986933,0.2978813766967771,0.062268250053088,0.4276190717599047,ATIWA WEST,0.0478656959560956,1278974.4048880537,0.20460968000130675,71.77530233732709,-1.1125982495779225,0.4548930431666495,-0.501117,NOT_SIGNIFICANT
Eastern,Ayensuano,District,5.94469995,-0.449937193103216,34538,25736,29.1,42.9,25899,43995,17710,16610,26702,27364,2749,3459,94594,0.7262088504556314,0.465092923441233,0.0656278410892868,0.4269834422802535,AYENSUANO,0.0407691618892053,2320234.108738109,0.27379114954436856,74.96023378833277,-0.2543057846857024,1.495196103200122,-0.472815,NOT_SIGNIFICANT
Eastern,Birim Central Municipal,Municipal,5.97391735,-1.00480959493596,25276,26732,11.9,41.9,9947,9297,12418,11876,22690,26007,1366,1945,76302,0.8696364446541375,0.1218447747110167,0.043393357972268,0.5139978464851561,BIRIM CENTRAL MUNICIPAL,0.0086925427599604,8777868.8131926,0.13036355534586253,56.687270263055225,-1.912012328405068,-1.325394740119817,-0.494759,NOT_SIGNIFICANT
Eastern,Birim North,District,6.3681437,-1.02271793293055,28892,24334,18.3,42.6,17609,14185,15155,14288,24286,24728,1902,2310,82669,0.7869939154943207,0.1715878987286649,0.0509501747934534,0.4571825799421335,BIRIM NORTH,0.0463227133577053,1784632.0737221846,0.21300608450567926,68.66405516791121,-1.0911649183916579,-0.4290945096660958,-0.56902,NOT_SIGNIFICANT
Eastern,Birim South,District,5.9375343,-1.0087951,11610,11912,24.9,43.6,7286,10484,6342,5790,10135,11093,943,1351,35654,0.7956470522241543,0.2940483536209121,0.0643406069445223,0.506419522149477,BIRIM SOUTH,0.0254624442817656,1400258.341479523,0.20435294777584567,67.95741473525533,-0.40004000240194776,-0.297203198100745,-0.327403,NOT_SIGNIFICANT
Eastern,Denkyembuor,District,6.05,-0.8,24095,27629,18.1,42.3,15302,9980,12977,12328,23028,24760,1861,2075,77029,0.8013475444313181,0.129561593685495,0.0510976385517142,0.5341620910989096,DENKYEMBOUR,0.0356521420299853,2160571.444352895,0.19865245556868194,61.18900142295137,-1.117902898892883,-1.2333902723365915,-0.533295,NOT_SIGNIFICANT
Eastern,Fanteakwa North,District,6.49761694999999,-0.362546050326661,21329,15599,28.9,41.9,16278,17663,10479,9580,16908,16701,1470,1849,56987,0.7143559057328864,0.3099478828504746,0.0582413532911014,0.4224165944540728,FANTEAKWA NORTH,0.0684271600690603,832812.5841038218,0.28564409426711357,69.55874914457438,-0.6996832439458623,0.8966834934907172,-0.37263,NOT_SIGNIFICANT
Eastern,Fanteakwa South,District,6.37117379999999,-0.311872167608319,20099,16378,21.7,41.7,9765,13448,9261,8896,16955,16368,1366,1788,54634,0.8212651462459275,0.2461470878939854,0.0577296189186221,0.4489952572854127,FANTEAKWA SOUTH,0.0214274370676236,2549721.640884002,0.1787348537540725,63.95282537586652,-1.4505786473498867,0.0925930528143442,-0.573425,NOT_SIGNIFICANT
Eastern,Kwaebibirem Municipal,Municipal,6.23359759999999,-0.87590978580917,42264,37174,19.6,42.9,24805,24359,21732,20528,35226,37175,3152,3885,121698,0.796175779388322,0.2001594110010024,0.0578234646419826,0.4679624361136987,KWAEBIBIREM,0.0656823593022775,1852826.2579596492,0.20382422061167804,68.0888385519537,-0.9642712483379136,-0.4293830912988801,-0.540722,NOT_SIGNIFICANT
Eastern,Kwahu Afram Plains North,District,6.8753584,0.0047456123339843,25007,16163,48.5,41.9,28103,32016,13563,11822,20752,17918,1252,1248,66555,0.5777477274434678,0.4810457516339869,0.0375629178874615,0.3925916929803255,KWAHU AFRAM PLAINS NORTH,0.1915933024976508,347376.4433953323,0.4222522725565322,72.11016291698992,0.4880793327595766,2.453266429130599,-0.160253,NOT_SIGNIFICANT
Eastern,Kwahu Afram Plains South,District,6.8854777,-0.460380290065423,28041,17113,39.1,41.6,30008,33075,15184,13664,22847,19800,1392,1115,74002,0.5944974460149726,0.4469473798005459,0.0338774627712764,0.3789918944058112,KWAHU AFRAM PLAINS SOUTH,0.2533132014474244,292136.37337949494,0.40550255398502744,73.52217037540741,-0.01604553539876936,2.306297782075254,-0.146698,NOT_SIGNIFICANT
Eastern,Kwahu East,District,6.73342465,-0.81009459846416,27342,25934,29.4,42.0,19159,25110,14034,12923,24195,23179,2341,3561,80233,0.761207981753144,0.3129634938242369,0.0735607543030922,0.486785794729334,KWAHU EAST,0.051002963816956,1573104.6589360442,0.23879201824685603,69.36083083547938,-0.5189839077656825,0.4056026055023144,-0.27953,NOT_SIGNIFICANT
Eastern,Kwahu South Municipal,Municipal,8.25846,0.508747,25687,26212,28.8,43.4,18927,22821,14332,13620,21905,24447,2130,3417,79851,0.7629710335499869,0.285794792801593,0.0694668820678513,0.5050579009229464,KWAHU SOUTH,0.0651005000049214,1226580.440917712,0.23702896645001315,72.27088367276492,-0.05704699109237701,-0.10287432723790163,-0.346586,NOT_SIGNIFICANT
Eastern,Kwahu West Municipal,Municipal,6.49118254999999,-0.728456087972531,51012,42241,15.1,41.9,24009,24021,26637,25539,40551,44751,3344,4607,145429,0.8349091309161172,0.1651733835754904,0.0546727268976614,0.4529720223478065,KWAHU WEST,0.0327915220247727,4434957.300552682,0.16509086908388282,70.48721014747603,-1.4891253467776795,-0.36550547309314185,-0.456995,NOT_SIGNIFICANT
Eastern,Lower Manya Krobo Municipal,Municipal,6.2127831,-0.0404975690174626,36376,48533,19.8,43.4,24179,24965,18640,18300,35520,42445,2707,4237,121849,0.8015658725143415,0.2048847343843609,0.0569885678175446,0.57158840641157,LOWER MANYA,0.0248714742405339,4899146.661817826,0.19843412748565847,56.28679535689092,-0.7698347179303098,-1.411152236987321,-0.496788,NOT_SIGNIFICANT
Eastern,New Juaben North Municipal,Municipal,6.1364245,-0.312846157003848,28972,34529,10.6,41.7,8759,9993,12629,12586,29655,29388,1878,2580,88716,0.9012692186302358,0.112640335452455,0.0502502367104017,0.5437552164532842,NEW JUABEN NORTH MUNICIPAL,0.0086201591273168,10291689.36323502,0.09873078136976421,50.25659265281236,-2.1884307883192076,-1.7047105753930265,-0.886512,NOT_SIGNIFICANT
Eastern,New Juaben South Municipal,Municipal,6.0721368,-0.260652306105858,48553,45659,8.5,41.1,11820,16248,17745,17784,42075,44834,2987,4316,129741,0.908895414710847,0.1252341202858001,0.0562890682205316,0.484641022375069,NEW JUABEN SOUTH MUNICIPAL,0.0044308806200079,29281086.79212552,0.091104585289153,49.28373356039075,-2.731407519612429,-1.1887371062071035,-0.845479,NOT_SIGNIFICANT
Eastern,Nsawam Adoagyiri Municipal,Municipal,5.81791215,-0.36426765,55497,48522,13.0,43.4,24185,45530,25823,25755,47801,49554,2793,3871,155597,0.8445664119488165,0.2926148961740907,0.0428285892401524,0.4664724713754218,NSAWAM ADOAGYIRI,0.01429196898756,10887023.344049675,0.15543358805118346,59.82435416773664,-1.509891593849196,-0.39279657847704313,-0.386565,NOT_SIGNIFICANT
Eastern,Okere,District,6.04034605,-0.127770489495342,18071,16536,24.0,42.4,11127,18125,8691,8377,14452,16239,1439,2477,51675,0.7846734397677794,0.3507498790517658,0.0757813255926463,0.4778224058716445,OKERE,0.0250558087980963,2062396.0063075696,0.21532656023222063,68.37183539148285,-0.7709888960828422,0.43301408230312605,-0.754281,NOT_SIGNIFICANT
Eastern,Suhum Municipal,Municipal,6.035885,-0.4552751,49088,34705,17.6,42.0,23909,36085,21768,20842,36414,40187,3044,4148,126403,0.8108510082830312,0.2854758194030205,0.0568973837646258,0.4141754084470063,SUHUM MUNICIPAL,0.0293343547181559,4309043.141206897,0.18914899171696875,65.01481703894206,-1.6164521279017703,0.4232548727581519,-0.758374,NOT_SIGNIFICANT
Eastern,Upper Manya Krobo,District,6.40201115,-0.134429386146108,28918,16271,32.7,40.5,24935,26939,13252,12171,20360,20752,1981,2096,70612,0.6468730527389113,0.3815073925111879,0.0577380615192885,0.3600655026665781,UPPER MANYA,0.0702382044714214,1005321.826367737,0.35312694726108873,71.75520529285853,-0.8461395043034518,2.1448087113609358,-0.360885,NOT_SIGNIFICANT
Eastern,Upper West Akim,District,5.80678025,-0.540057196199224,33617,27069,29.7,43.7,27158,47183,17860,17309,26665,28405,2263,3353,95855,0.716676229721976,0.4922330603515727,0.058588493036357,0.4460501598391721,UPPER WEST AKIM,0.0279601643606772,3428270.262059293,0.283323770278024,74.06028690757218,0.04848291608118926,1.3382548758469637,-0.310289,NOT_SIGNIFICANT
Eastern,West Akim Municipal,Municipal,5.9070609,-0.68318054757923,40323,36708,23.7,43.0,27295,33081,20654,19996,33607,36756,2767,3901,117681,0.7680594148588132,0.2811074005149514,0.0566616531130768,0.4765354208046111,WEST AKIM,0.0388108800237565,3032165.205426062,0.23194058514118676,67.24841180734192,-0.6570086628501618,-0.027379772337491944,-0.323239,NOT_SIGNIFICANT
Eastern,Yilo Krobo Municipal,Municipal,6.1564095,-0.167401779755807,45081,36387,21.5,42.1,25873,36007,20749,20181,35736,38765,2993,3974,122398,0.7886158270559976,0.2941796434582264,0.0569208647200117,0.4466416261599646,YILO KROBO,0.0395067111390866,3098157.1604147926,0.21138417294400236,64.2904122092321,-1.2443529133755638,0.3076811286792919,-0.760804,NOT_SIGNIFICANT
Greater Accra,Ablekuma Central Municipal,Municipal,5.5541808,-0.24078224491606,71986,49569,9.4,45.2,20160,61784,23738,23852,55723,58491,3133,4208,169145,0.8808123207898548,0.3652723994206154,0.043400632593337,0.4077907120233639,ABLEKUMA CENTRAL MUNICIPAL,0.0011501928462446,147057948.1973461,0.11918767921014517,48.09480448981736,-1.994559229378307,-0.3606470790059889,-1.323998,NOT_SIGNIFICANT
Greater Accra,Ablekuma North Municipal,Municipal,5.58719365,-0.263259064824942,69225,45302,8.3,42.9,11382,58368,22388,22293,51922,56500,2472,3633,159208,0.928508617657404,0.3666147429777398,0.0383460630119089,0.3955573794825674,ABLEKUMA NORTH MUNICIPAL,0.0024069857804071,66144138.15650905,0.071491382342596,46.841047019977495,-2.812605183642497,0.10883495833590373,-1.270177,NOT_SIGNIFICANT
Greater Accra,Ablekuma West Municipal,Municipal,5.5431939,-0.26615017413473,61592,46044,8.9,43.0,12511,60497,22920,22934,48489,53014,2470,3663,153490,0.9184898038960192,0.3941429409082025,0.0399570004560557,0.4277750938347764,ABLEKUMA WEST MUNICIPAL,0.0010528207946906,145789293.65192398,0.0815101961039808,51.217205402795976,-2.430825962549212,0.11543256679223725,-1.305627,NOT_SIGNIFICANT
Greater Accra,"Accra Metropolitan Area (AMA)-Ablekuma South, Ashiedu Keteke & Okaikoi South",Metropolitan,5.55381875,-0.205849787615075,121103,84691,11.1,43.9,46139,105374,35341,35862,94041,106780,1895,3078,276997,0.8334314090044297,0.3804156723719029,0.0179532630317295,0.4115328921154164,ACCRA METROPOLIS,0.0004585063159214,604129082.5913851,0.1665685909955703,37.93228795793269,-2.3845682356141915,-0.12706354974298434,-1.323998,NOT_SIGNIFICANT
Greater Accra,Ada East,District,5.8761016,0.549568161630084,23660,24880,28.2,44.2,22384,32786,14190,13681,21337,23053,1507,2643,76411,0.7070578843360249,0.4290743479341979,0.0543115520016751,0.5125669550885867,ADA EAST,0.0236565575921177,3230013.4836803093,0.2929421156639751,72.13561612975894,0.3619396230709792,0.4465357856340695,0.505307,NOT_SIGNIFICANT
Greater Accra,Ada West,District,5.9040093,0.420370257026968,22587,22495,40.1,44.7,25206,45090,15739,15266,20114,21662,1279,2027,76087,0.6687213321592388,0.59261108993652,0.0434502608855652,0.4989796371057184,ADA WEST,0.0264321840256904,2878574.087031479,0.3312786678407612,82.13088854844887,1.370041830593667,1.6368801640720025,0.222008,NOT_SIGNIFICANT
Greater Accra,Adentan Municipal,Municipal,5.7042433,-0.1690967,108423,82032,8.3,41.8,18956,99635,37515,38001,90372,91225,4078,4780,265971,0.9287290719664926,0.3746085099503329,0.033304382808652,0.4307159171457824,ADENTA MUNICIPAL,0.0063644122283455,41790347.71120412,0.07127092803350743,46.46222129220197,-2.9096484971054384,0.14631586104561944,-1.364699,NOT_SIGNIFICANT
Greater Accra,Ashaiman Municipal,Municipal,5.6993574,-0.0348533202566188,90383,55066,7.5,43.3,23548,72971,31383,31228,68910,70025,3117,3397,208060,0.8868211092953956,0.3507209458809959,0.0313082764587138,0.3785931838651348,ASHAIMAN MUNICIPAL,0.0015142785495336,137398763.30155778,0.1131788907046044,49.75348184402778,-2.602095370160524,0.15925062545706578,-1.265259,NOT_SIGNIFICANT
Greater Accra,Ayawaso Central Municipal,Municipal,5.59137939999999,-0.212668442666915,39158,30825,12.2,42.8,8646,41548,12311,12537,32353,33339,1824,2467,94831,0.90882728221784,0.4381267728907214,0.0452489164935516,0.4404641127130874,AYAWASO CENTRAL MUNICIPAL,0.000127059026702,746353899.1398169,0.09117271778215996,44.356999330207636,-2.4748112084632967,0.22519345467990082,-1.169788,NOT_SIGNIFICANT
Greater Accra,Ayawaso East Municipal,Municipal,5.5828425,-0.194266228463183,18510,19828,15.4,44.0,10085,20605,7206,7460,16935,18521,1297,1585,53004,0.8097313410308655,0.3887442457173043,0.0543732548486906,0.517189211748135,AYAWASO EAST MUNICIPAL,0.0005055842050899,104837135.8645788,0.19026865896913447,49.4923285198556,-1.2453773933793484,-0.4877464716172818,-1.236814,NOT_SIGNIFICANT
Greater Accra,Ayawaso North Municipal,Municipal,5.5908829,-0.199044848506062,22947,23128,13.9,43.8,9042,21546,8488,8823,20220,22837,1335,1683,63386,0.8573502035149718,0.3399173319029439,0.0476130375792761,0.5019641888225719,AYAWASO NORTH MUNICIPAL,0.0004028250049782,157353687.6228046,0.14264979648502818,47.214157976635626,-1.665691454090401,-0.7167422100639461,-1.242152,NOT_SIGNIFICANT
Greater Accra,Ayawaso West Municipal,Municipal,5.62669775,-0.179111178909241,27690,33319,9.3,41.6,4076,26430,7177,7117,30110,27974,1327,1598,75303,0.9458720104112718,0.3509820325883431,0.0388430739811162,0.5461325378222885,AYAWASO WEST,0.0026628709239148,28278877.253761813,0.05412798958872822,29.64499690103987,-3.003242636793072,-0.9990253791055558,-1.294187,NOT_SIGNIFICANT
Greater Accra,Ga Central Municipal,Municipal,5.3203951,-2.0334832,135748,95640,8.3,42.6,23248,145106,50214,50630,106324,113999,5054,6011,332232,0.9300248019456284,0.4367610585374076,0.0333050398516699,0.413331719881757,GA CENTRAL MUNICIPAL,0.0040006830457215,83043819.31862846,0.06997519805437158,50.79315368799444,-2.6496077483896703,0.4698045781407179,-1.185109,NOT_SIGNIFICANT
Greater Accra,Ga East Municipal,Municipal,5.669162,-0.333376,110684,92554,10.1,41.8,18905,105771,39761,40380,96002,97660,4252,5324,283379,0.9332872231181564,0.3732492527674951,0.0337922005512052,0.4553971206172074,GA EAST,0.006994984023853,40511743.70572869,0.06671277688184363,46.32658962522333,-2.7472268211544617,-0.004544931806152914,-1.419036,NOT_SIGNIFICANT
Greater Accra,Ga North Municipal,Municipal,5.669162,-0.333376,87022,76640,10.5,42.3,18918,86352,35527,36103,77522,79032,3432,3676,235292,0.9195977763799874,0.3669993029937269,0.0302092718834469,0.4682821913455781,GA NORTH MUNICIPAL,0.0101866239344167,23098133.544032983,0.08040222362001259,50.29446708483973,-2.384259174849705,-0.12719140648303223,-1.282316,NOT_SIGNIFICANT
Greater Accra,Ga South Municipal,Municipal,5.669162,-0.333376,125103,103262,15.8,44.1,49991,179053,61267,60489,107044,111736,4181,5404,350121,0.857217933228798,0.5114032006077899,0.0273762499250259,0.4521796247235785,GA SOUTH MUNICIPAL,0.0145517541994667,24060398.162362464,0.14278206677120198,60.03336685254593,-1.2768274403972568,0.6439113823906528,-1.092514,NOT_SIGNIFICANT
Greater Accra,Ga West Municipal,Municipal,5.669162,-0.333376,110786,92906,10.5,43.3,35609,123514,55150,55457,97011,99245,3382,4054,314299,0.8867034257188219,0.3929824784679557,0.0236589998695509,0.4561102056045402,GA WEST MUNICIPAL,0.0142788433021493,22011516.853937995,0.11329657428117812,60.1474604598076,-1.770576399360681,0.09452541845391141,-1.214371,NOT_SIGNIFICANT
Greater Accra,Korle Klottey Municipal,Municipal,5.55901944999999,-0.19823054970895,29874,23696,10.6,43.4,6313,23554,7480,7583,24034,25651,1594,2291,68633,0.9080180088295716,0.3431876793962088,0.0566054230472221,0.4423371289901064,KORLE KLOTTEY MUNICIPAL,0.0008057450657622,85179547.37342587,0.09198199117042838,38.13625842809701,-2.6242322844538095,-0.5147332717990828,-1.254949,NOT_SIGNIFICANT
Greater Accra,Kpone Katamanso Municipal,Municipal,5.77159775,-0.0733651054089466,151899,121007,10.5,43.1,38226,156281,69740,70182,132130,132218,3852,4706,412828,0.907404536513996,0.3785620161423159,0.0207301830302208,0.4434017573816625,KPONE KATAMANSO,0.0195870092835345,21076622.47074319,0.092595463486004,56.16838409974731,-2.079646365171535,0.046400296976199046,-1.026421,NOT_SIGNIFICANT
Greater Accra,Krowor Municipal,Municipal,5.60941925,-0.0769277820845922,54725,50079,12.4,42.4,10206,61701,18895,19313,49619,50062,2221,2902,143012,0.9286353592705509,0.4314393197773613,0.0358221687690543,0.4778348154650585,KROWOR MUNICIPAL,0.0014972529528438,95516258.44408593,0.07136464072944915,43.469668241691,-2.4812264444056136,-0.00795687053441845,-1.380659,NOT_SIGNIFICANT
Greater Accra,La Dade-Kotopon Municipal,Municipal,5.58947605,-0.156988356399583,59055,43079,8.9,43.1,7669,51992,19006,19124,46798,49510,2295,3531,140264,0.9453245308846177,0.3706724462442252,0.0415359607597102,0.4217890222648677,LA DADE-KOTOPON,0.0029417786815568,47679997.438070685,0.05467546911538235,45.6410682393986,-2.716660743266794,-0.12311494925129055,-1.282185,NOT_SIGNIFICANT
Greater Accra,La Nkwantanang Madina Municipal,Municipal,5.74468145,-0.172508699400876,83831,74454,11.3,42.7,17028,77868,31134,31338,74729,76189,3177,4190,220757,0.9228654131012832,0.3527317367059708,0.0333715352174563,0.4703793789683166,LA-NKWANTANANG-MADINA,0.0057888954631219,38134563.21785883,0.07713458689871677,46.276123457771774,-2.402263430900777,-0.3631839731081029,-1.420941,NOT_SIGNIFICANT
Greater Accra,Ledzokuku Municipal,Municipal,5.6050983,-0.114493361214251,84358,72808,11.3,43.3,18575,82055,29909,30229,72722,76060,3468,4916,217304,0.914520671501675,0.377604646025844,0.0385818944888267,0.4632554114757645,LEDZOKUKU MUNICIPAL,0.0023868649947195,91041596.60506296,0.08547932849832496,46.05530238872982,-2.2711483499697214,-0.3155025822840849,-1.446919,NOT_SIGNIFICANT
Greater Accra,Ningo-Prampram,Municipal,5.81176965,0.146110955005239,71636,62214,19.4,44.0,35619,92454,35324,35499,64008,63476,2539,3827,204673,0.8259711833021454,0.4517156635218128,0.0311032720485848,0.4648038849458349,NINGO/PRAMPRAM,0.0508060282249767,4028518.0154936975,0.17402881669785464,60.54799033604217,-1.0046452807418484,0.3984127690999855,-0.284034,NOT_SIGNIFICANT
Greater Accra,Okaikoi North Municipal,Municipal,5.6104365,-0.2395459,63259,54414,11.1,42.4,12770,54359,21231,21542,54554,56884,2636,3599,160446,0.9204093589120328,0.3387993468207372,0.0388604265609613,0.4624170370433319,OKAIKWEI NORTH MUNICIPAL,0.0018310471125095,87625271.30178356,0.0795906410879672,43.97781726161632,-2.587437001581376,-0.3567336464285444,-1.310503,NOT_SIGNIFICANT
Greater Accra,Shai-Osudoku,District,5.95875335,0.161872328401567,33556,35351,23.5,44.2,22754,30351,18546,18157,32871,31732,1719,2585,105610,0.7845469179055014,0.2873875579964018,0.0407537165041189,0.5130248015441102,SHAI OSUDOKU,0.0790958382438886,1335215.636432806,0.21545308209449865,63.475380400291,-0.400227044648339,-0.5874358086780735,-0.088947,NOT_SIGNIFICANT
Greater Accra,Tema Metropolitan Area (TMA)-Tema Central & Tema East,Metropolitan,5.6698,-0.01657,69392,55541,11.6,43.8,19800,78852,24565,24996,59728,60769,1794,2642,174494,0.8865290497094456,0.45188946324802,0.0254220775499444,0.4445662875301161,TEMA METROPOLITAN,0.0034810543556788,50126766.8272217,0.11347095029055443,44.81190403080574,-2.158642631289379,0.0841230665787139,-1.379165,NOT_SIGNIFICANT
Greater Accra,Tema West Municipal,Municipal,5.65076355,-0.0688760444019398,81595,60403,8.2,42.0,10773,76946,27080,27146,66160,67893,3606,4339,196224,0.9450984589041096,0.3921334801043705,0.0404894406392694,0.42537923069339,TEMA WEST MUNICIPAL,0.0036881103627983,53204481.61727846,0.054901541095890405,46.37792514900823,-2.9438517264678383,0.19706581071625404,-1.379165,NOT_SIGNIFICANT
Greater Accra,Weija Gbawe Municipal,Municipal,5.55414475,-0.296466750643799,85093,61436,8.7,42.9,16714,84797,33744,33401,68119,71627,3047,3736,213674,0.9217780356992428,0.3968522141205762,0.0317446203094433,0.4192753652860526,WEIJA GBAWE MUNICIPAL,0.0133606533098104,15992780.82031396,0.07822196430075723,52.901693071715826,-2.4545807838370584,0.22879513308242,-1.143209,NOT_SIGNIFICANT
North East,Bunkpurugu Nakpanduri,District,10.632198,-0.180118,16889,34450,38.3,45.5,31770,8825,15560,15485,23265,23614,1579,2881,82384,0.614366867352884,0.1071203146241988,0.0541367255777821,0.6710298213833538,BUNKPURUGU NAKPANDURI,0.0635474629740332,1296416.8220793295,0.38563313264711596,75.73753706350391,2.094241231104491,-2.089077421620597,2.044156,HOTSPOT_P05
North East,Chereponi,District,10.1792653999999,0.207987165887793,18122,27082,53.8,44.2,49085,32497,21399,20573,20495,22457,940,1312,87176,0.4369436542167569,0.3727746168670276,0.025832798017803,0.5991062737810813,CHEREPONI,0.1134252910256878,768576.3837295943,0.5630563457832432,102.9614453343267,3.6201570865083035,0.9358387065945584,1.686066,NOT_SIGNIFICANT
North East,East Mamprusi Municipal,Municipal,10.45279035,-0.416678651029704,27208,74804,54.7,47.4,98293,31628,44042,41952,44297,50910,2780,4025,188006,0.4771815793112985,0.1682286735529717,0.0361956533302128,0.7332862800454848,EAST MAMPRUSI,0.1409843679776385,1333523.7281754492,0.5228184206887014,97.47077420777885,4.623235973612846,-1.7676134480338506,2.021115,HOTSPOT_P05
North East,Mamprugu Moagduri,District,10.23964,-1.27428,21572,15425,44.5,42.4,40473,43003,16277,15472,16808,17970,968,1251,68746,0.4112675646583074,0.6255345765571815,0.0322782416431501,0.416925696678109,MAMPRUGU MOAGDURI,0.1751361983206436,392528.7899314689,0.5887324353416926,97.67094139973547,2.005577921655437,3.5480855451812943,1.63339,NOT_SIGNIFICANT
North East,West Mamprusi Municipal,Municipal,10.29738455,-0.764055036110824,31319,66367,41.5,45.8,82262,26996,39813,38256,43613,48368,2286,3419,175755,0.5319507268641006,0.1536001820716338,0.0324599584649085,0.6793911102921606,WEST MAMPRUSI MUNICIPAL,0.2155766006155346,815278.6503645004,0.4680492731358994,91.07750513693045,3.1163224501377833,-1.532633452812387,1.806667,NOT_SIGNIFICANT
North East,Yunyoo Nasuan,District,10.4415225,-0.0276844142154081,10414,18846,56.9,47.0,32999,18812,14196,13423,12891,13990,940,1439,56879,0.4198386047574676,0.3307371789236801,0.041825629845813,0.6440874914559125,YUNYOO-NASUAN,0.0402958902434432,1411533.525041181,0.5801613952425324,111.5955507607604,4.910165603146774,0.06746620694959585,2.065511,HOTSPOT_P05
Northern,Gushegu Municipal,Municipal,9.9185016,-0.2164706,36081,41484,51.5,44.3,92056,74095,39252,37148,34170,39410,1939,2046,153965,0.4020978793881726,0.4812457376676517,0.025882505764297,0.53482885321988,GUSHEGU,0.2205192483403475,698193.0201502036,0.5979021206118273,109.24843707529219,3.6156383954728986,1.9962662355632377,2.040794,HOTSPOT_P05
Northern,Karaga,District,9.9267799,-0.4316607,25654,34057,50.5,46.5,69495,50110,28047,26467,25893,30391,1737,1690,114225,0.3915955351280368,0.438695557014664,0.030002188662727,0.5703639195458123,KARAGA,0.2573131621562059,443914.33008257055,0.6084044648719632,102.94399829436429,4.053950294218991,0.9717186420461242,1.932265,NOT_SIGNIFICANT
Northern,Kpandai,District,8.4635789,-0.0119853,41265,29199,48.6,42.1,64398,67683,28295,27454,32983,33691,1603,2187,126213,0.4897672981388605,0.5362601316821564,0.0300286024419037,0.4143818119891008,KPANDAI,0.0930267541645065,1356738.7267624915,0.5102327018611394,89.29867714551399,1.5155722250996855,2.9837246368451193,1.04486,NOT_SIGNIFICANT
Northern,Kumbungu,District,9.5591282,-0.9467086,20044,40208,45.0,46.4,56077,39469,26246,24088,26963,28760,2082,2447,110586,0.492910494999367,0.3569077460076321,0.0409545512090138,0.6673305450441479,KUMBUNGU,0.1270614712030164,870334.6415949153,0.507089505000633,98.4566516519211,3.766316284026805,-0.34735601761653423,1.897839,NOT_SIGNIFICANT
Northern,Mion,District,9.45284905,-0.335525511842833,23875,26064,53.4,44.5,57646,40227,23000,21991,22749,24286,1413,1491,94930,0.3927525545138522,0.4237543453070683,0.0305909617612978,0.5219167384208735,MION,0.2234849045600453,424771.418843166,0.6072474454861478,101.82842564048049,3.4387962753097123,1.6615483662228203,1.511687,NOT_SIGNIFICANT
Northern,Nanton,District,9.55848269999999,-0.710728600167338,12168,15048,39.9,45.3,27942,19692,12316,11235,12111,13374,830,901,50767,0.4496030886205606,0.3878897709141765,0.0340969527448933,0.5529100529100529,NANTON,0.039261272532856,1293055.388296834,0.5503969113794394,99.20345301157543,2.9706290723302424,0.7885428037190406,1.484732,NOT_SIGNIFICANT
Northern,Nanumba North Municipal,Municipal,8.92200959999999,-0.138644700894755,54525,46544,41.5,41.4,100046,82760,44193,43418,45870,49965,2216,3018,188680,0.4697583209667161,0.438626245495018,0.0277400890396438,0.4605170724950281,NANUMBA NORTH,0.1859015701158831,1014945.704236844,0.5302416790332839,96.88005425992591,1.5898698889813807,2.4228143034480962,1.504065,NOT_SIGNIFICANT
Northern,Nanumba South,District,8.76637935,0.0549741822848612,30173,24524,46.3,42.3,58488,46239,26547,25130,24635,26996,1329,1737,106374,0.4501663940436573,0.4346832872694455,0.0288228326470754,0.4483609704371354,NANUMBA SOUTH,0.1470357791372214,723456.566994665,0.5498336059563427,106.02738664755671,2.28486162261909,2.5563774420079146,1.291273,NOT_SIGNIFICANT
Northern,Saboba,District,9.70870525,0.196098328672698,23478,30002,46.0,45.3,43917,20603,21316,20887,24741,26074,1115,1550,95683,0.5410156454124557,0.2153256064295643,0.0278523875714599,0.5609947643979057,SABOBA,0.1443055828973473,663058.1996821614,0.4589843545875443,88.29676276689953,2.520149987351668,-0.3523149934277247,1.397221,NOT_SIGNIFICANT
Northern,Sagnarigu Municipal,Municipal,9.48585935,-0.855049753344912,85957,123012,18.7,43.9,94006,62402,66933,65809,98837,100082,4429,5621,341711,0.7248961842024401,0.1826163044209873,0.0294108179133829,0.5886614761041111,,,,0.27510381579755994,71.78399247935089,0.14059027830202547,-1.3568970709796584,,EXCLUDED
Northern,Savelugu Municipal,Municipal,9.6260647,-0.8258943,22576,46349,41.1,45.5,60689,44028,27601,26362,30825,33659,1964,2477,122888,0.5061438057418137,0.3582774558947985,0.0361385977475424,0.672455567645992,SAVELUGU,0.1275039913737909,963797.2794101894,0.4938561942581863,90.5713045096458,3.134499978669632,-0.40221016734357495,1.847594,NOT_SIGNIFICANT
Northern,Tamale Metropolitan Area (TMA)-Tamale Central & Tamale South,Metropolitan,9.40078,-0.8393,105305,117605,21.0,44.0,123455,97886,73044,71370,106568,111108,2272,2962,367324,0.6639070684191613,0.266484084895079,0.014249000882055,0.5275896101565655,TAMALE METROPOLITAN,0.0532722453598184,6895222.784753517,0.33609293158083875,68.74804755691946,0.0929452170644405,-0.5048982757623415,1.787324,NOT_SIGNIFICANT
Northern,Tatale Sanguli,District,9.34906725,0.514632473680653,20678,19204,52.4,43.5,40934,36464,17927,16996,17913,19322,1101,1546,74805,0.4527905888643807,0.487454047189359,0.0353853352048659,0.4815204854320244,TATALE SANGULI,0.089708206228692,833870.2014540402,0.5472094111356193,100.89969115079897,2.778796652612156,2.3305848171328227,1.436712,NOT_SIGNIFICANT
Northern,Tolon,District,9.555956,-1.19792230212529,21538,43727,57.5,46.8,66152,61432,27261,25564,29223,31525,2023,2494,118090,0.4398170886611906,0.5202133965619443,0.0382504869167584,0.6699915728185092,TOLON,0.111526693509834,1058849.6465161254,0.5601829113388094,94.39323105287417,4.431878176625472,0.5285821982763136,1.781741,NOT_SIGNIFICANT
Northern,Yendi Municipal,Municipal,9.4739214,0.022769270127783,35078,52937,38.3,45.3,71415,36683,33899,32507,39806,42284,2437,3488,154421,0.5375305172223985,0.2375518873728314,0.038369133731811,0.6014542975629155,YENDI MUNICIPAL,0.1191004948863233,1296560.5235090638,0.46246948277760147,88.11182848093556,2.4306654487831314,-0.616642149675067,1.376103,NOT_SIGNIFICANT
Northern,Zabzugu,District,9.294058,0.367064,19567,23899,42.7,43.3,46203,32326,20403,18977,19446,21673,1030,1317,82846,0.4423025855201217,0.3901938536561813,0.0283296719213963,0.5498320526388442,ZABZUGU,0.0904895291002571,915531.3418441098,0.5576974144798783,101.47863518081665,2.708182010170727,1.3399413294482465,1.350624,NOT_SIGNIFICANT
Oti,Biakoye,District,7.39217985,0.262973639210098,26316,18533,34.2,42.2,22512,28009,13938,13040,20259,20321,1872,2397,71827,0.6865802553357372,0.3899508541356314,0.0594344745012321,0.4132310642377756,BIAKOYE,0.0905682067195939,793070.7982590605,0.3134197446642628,77.00098570724495,-0.11102176169097767,1.536349693404889,-0.121664,NOT_SIGNIFICANT
Oti,Guan,District,7.19092,0.60951,10218,9102,28.1,42.9,4992,7735,4642,4276,8596,7785,1215,1724,28238,0.8232169417097528,0.273921665840357,0.1040796090374672,0.4711180124223602,,,,0.1767830582902472,72.38263842256274,-0.5526605472766453,0.07167023488197316,,EXCLUDED
Oti,Jasikan Municipal,Municipal,7.40707195,0.466071316332564,22068,17426,30.2,42.2,14510,21967,10365,9836,18458,17401,1618,2017,59695,0.7569310662534551,0.3679872686154619,0.0608928720998408,0.4412315794804274,JASIKAN,0.0455141073600091,1311571.3668252856,0.24306893374654492,66.47145765358766,-0.7192204262457327,0.8929138498433887,-0.360395,NOT_SIGNIFICANT
Oti,Kadjebi,District,7.7210325,0.534053201682814,27062,19482,27.2,41.5,21183,21373,14138,13277,21950,20709,1814,2071,73959,0.7135845536040238,0.2889844373233818,0.0525291039630065,0.4185716741148161,KADJEBI,0.0565371302828991,1308149.1690491834,0.28641544639597616,73.37255913171899,-0.7499194408473754,0.9518617491687279,-0.02818,NOT_SIGNIFICANT
Oti,Krachi East Municipal,Municipal,7.69817,0.22447,38222,26542,41.2,41.6,48059,50657,23489,22182,30990,30218,1707,1849,110435,0.5648209353918594,0.4587042151491828,0.032199936614298,0.4098264467914273,KRACHI EAST MUNICIPAL,0.2262190966905813,488177.1769739277,0.4351790646081406,80.42576133838713,0.5365268831717664,2.363020897478364,0.21204,NOT_SIGNIFICANT
Oti,Krachi Nchumuru,District,8.1892008,-0.0866133771431008,28802,17142,47.2,40.8,38203,47974,17598,16392,21445,21370,1324,1805,79934,0.5220682062701729,0.6001701403658017,0.0391447944554257,0.3731063903882988,KRACHI NCHUMURU,0.0980684544835958,815083.7129116863,0.4779317937298271,86.69625131379189,0.8041502367828999,3.7274474955511354,0.720015,NOT_SIGNIFICANT
Oti,Krachi West Municipal,Municipal,7.8,-0.01667,20533,17593,37.4,41.7,25155,15465,11860,11142,18268,17444,1081,1333,61128,0.5884864546525324,0.2529937180997251,0.0394909043318937,0.4614436342653307,KRACHI WEST,0.0761437047047502,802797.8181128147,0.41151354534746765,71.16935483870968,0.20526076662641332,0.7420045494575599,0.382656,NOT_SIGNIFICANT
Oti,Nkwanta North (Kpassa),District,8.4892994,0.3094664,39799,29263,55.2,41.7,69270,92265,28933,28101,32315,33375,1374,1998,126096,0.450656642558051,0.7317044156832889,0.026741530262657,0.4237207147201066,NKWANTA NORTH,0.0902615936122719,1397006.134654109,0.5493433574419491,91.95615771045821,1.995820501301677,4.162481748544968,0.890077,NOT_SIGNIFICANT
Oti,Nkwanta South Municipal,Municipal,8.25811615,0.509975335946734,47109,32265,42.8,41.8,60865,71074,29048,27514,36847,37565,2248,2714,135936,0.5522525306026365,0.5228489877589454,0.0365024717514124,0.4064933101519389,NKWANTA SOUTH MUNICIPAL,0.2242670058053369,606134.6363093285,0.44774746939736354,82.68021286889211,0.763259287081473,2.7377476285399687,0.441236,NOT_SIGNIFICANT
Savannah,Bole,District,8.69166865,-2.17855621492469,27779,44167,37.2,44.8,56513,22652,22281,21573,36043,32286,1579,2038,115800,0.5119775474956823,0.1956131260794473,0.0312348877374784,0.613890973785895,BOLE,0.5068922112502809,228450.93578055213,0.48802245250431775,69.47416177611262,1.7859872961265306,-1.1171932639503865,1.12887,NOT_SIGNIFICANT
Savannah,Central Gonja,District,8.93715119999999,-1.10983922943129,24193,52626,61.8,46.6,81261,65926,33708,32235,36113,37012,1814,1880,142762,0.430793908743223,0.4617895518415265,0.0258752329051148,0.6850648927999583,CENTRAL GONJA,0.6213575790733623,229758.2017312843,0.569206091256777,95.23008547008547,4.657088499559454,0.2782810203073653,1.454133,NOT_SIGNIFICANT
Savannah,East Gonja Municipal,Municipal,8.347473,-0.7895018232454,31564,37727,38.8,43.1,60387,34704,24863,23601,33657,32157,1679,1798,117755,0.4871810114220203,0.2947136002717506,0.0295274086026071,0.5444718650329768,EAST GONJA MUNICIPAL,0.1850750405270798,636255.4327403771,0.5128189885779797,78.92089828911782,1.5647596537482076,0.41522082522546233,1.036644,NOT_SIGNIFICANT
Savannah,North East Gonja,District,8.98787705,-0.403868101269744,8662,12137,60.4,45.6,23615,23207,9616,8989,9775,9966,526,532,39404,0.4006953608770683,0.5889503603695057,0.0268500659831489,0.5835376700802923,NORTH EAST GONJA,0.5003680914658075,78750.02557530721,0.5993046391229317,99.6048832379312,4.190842663659908,1.8786700085509846,0.95292,NOT_SIGNIFICANT
Savannah,North Gonja,District,8.98787705,-0.403868101269744,12152,21266,58.4,47.2,36888,36681,14200,13825,15763,15868,801,986,61443,0.3996386895171134,0.5969923343586739,0.0290838663476718,0.6363636363636364,NORTH GONJA,0.3993787013390397,153846.4615013106,0.6003613104828867,94.24931238342133,4.552260436735497,1.1057592216759982,1.936385,NOT_SIGNIFICANT
Savannah,Sawla Tuna Kalba,District,9.4809443,-2.41330933679435,22712,43064,54.2,46.9,66172,48272,23714,23174,26941,33062,2349,3424,112664,0.4126606546900518,0.4284598452034368,0.0512408577717815,0.654706883969837,SAWLA-TUNA-KALBA,0.3480407154289615,323709.25298536173,0.5873393453099482,87.76394513607653,4.099492740030123,0.02934228253836935,1.84057,NOT_SIGNIFICANT
Savannah,West Gonja,Municipal,9.5267018,-1.5071681,10305,28704,39.7,44.9,25501,5633,12525,11915,18794,18196,951,1068,63449,0.5980866522719035,0.0887799650112688,0.0318208324796293,0.7358301930323772,WEST GONJA,0.388117037190181,163479.03833170148,0.4019133477280965,71.5301432819681,2.219819282137765,-2.5065633859767527,1.964587,HOTSPOT_P05
Upper East,Bawku Municipal,Municipal,11.0607602,-0.2422876,31016,42804,23.6,44.8,49713,8649,23314,22324,32217,34839,2498,4266,119458,0.5838453682465804,0.0724020157712334,0.0566224112240285,0.5798428610132755,BAWKU MUNICIPAL,0.0204613183280938,5838235.742414582,0.4161546317534196,78.14662371748986,1.1279860086047202,-1.6365959217894668,1.824758,NOT_SIGNIFICANT
Upper East,Bawku West,District,10.84277,-0.492947618512454,30266,55329,47.6,47.2,74798,18214,30246,28348,37320,39958,3215,5102,144189,0.4812503034212041,0.1263203156967591,0.0576812378198059,0.6464045797067586,BAWKU WEST,0.0885939155059247,1627527.1182743614,0.5187496965787959,86.58479774321282,3.51935453023128,-1.6710550529613144,2.290647,HOTSPOT_P05
Upper East,Binduri,District,10.9694889,-0.3062234,13742,32587,53.8,47.8,40396,10934,15617,14733,19298,21406,2076,3549,76679,0.4731804014136856,0.1425944521968205,0.0733577641857614,0.7033823307215783,BINDURI,0.0324257184767144,2364758.703961012,0.5268195985863144,88.38197720125787,4.244740877777324,-1.9575482435480351,1.715421,NOT_SIGNIFICANT
Upper East,Bolgatanga East,District,10.7853963,-0.8487322,9790,15601,24.9,44.0,12504,2878,6860,6573,11258,11835,718,1580,38824,0.6779311765917989,0.0741294044920667,0.0591901916340408,0.6144303099523453,BOLGA  EAST,0.0059401483051653,6535863.753812376,0.3220688234082011,68.12020958732083,0.5145320887628759,-1.9856249835046182,1.501891,NOT_SIGNIFICANT
Upper East,Bolgatanga Municipal,Municipal,10.7853963,-0.8487322,41187,52286,20.2,44.8,40341,12511,24732,24304,40979,46310,2139,4045,142509,0.716923141696314,0.0877909465367099,0.0433937505701394,0.5593700854792293,BOLGATANGA MUNICIPAL,0.0268991856101905,5297892.7341953255,0.283076858303686,63.261121103460916,-0.021576686257859034,-1.9445699516317068,1.098944,NOT_SIGNIFICANT
Upper East,Bongo,District,10.9166838999999,-0.805767855895511,16592,56294,54.0,48.5,51970,19822,22357,21188,30052,35165,2685,4984,116431,0.5536412123918888,0.1702467555891472,0.0658673377365134,0.7723568312158714,BONGO,0.0343169009909094,3392818.017886947,0.4463587876081112,78.52860450496037,4.148711347283545,-2.717638237789811,1.354103,NOT_SIGNIFICANT
Upper East,Builsa North Municipal,Municipal,10.73472,-1.29056,12841,24155,39.7,46.8,22586,6489,10206,9369,16697,16143,1429,2727,56571,0.6007495006275301,0.1147054144349578,0.0734652030192147,0.6529084225321656,BUILSA NORTH,0.067504195792055,838036.7966202508,0.3992504993724699,72.26248477466505,2.2896616272966925,-2.235721086335426,1.396006,NOT_SIGNIFICANT
Upper East,Builsa South,District,10.53032385,-1.26246582508358,6949,15982,55.1,47.7,18682,8007,7090,6554,10496,10263,742,1430,36575,0.4892139439507861,0.2189200273410799,0.0593848257006151,0.6969604465570625,BUILSA SOUTH,0.1025830527313109,356540.3741278639,0.5107860560492139,76.18864107134256,3.808350338166219,-1.7510413491497538,1.250993,NOT_SIGNIFICANT
Upper East,Garu,District,10.76975475,-0.21182067584702,15489,27113,44.7,47.7,36894,14309,14969,14203,17246,19558,2219,3579,71774,0.4859698498063365,0.1993618859196923,0.0807813414328308,0.6364255199286418,GARU,0.0558278262331702,1285631.285377815,0.5140301501936635,95.01684599500054,3.7648354919112785,-1.249769805599237,1.844336,NOT_SIGNIFICANT
Upper East,Kasena Nankana Municipal,Municipal,10.895598,-1.30768,23082,44019,33.8,47.1,32647,12449,16622,16172,29966,31126,2070,3939,99895,0.673186846188498,0.1246208518944892,0.0601531608188598,0.6560110877632226,KASENA NANKANA EAST,0.0634321902358641,1574831.321897507,0.326813153811502,63.51568126759641,1.6248693351680248,-2.622876340763699,1.326841,NOT_SIGNIFICANT
Upper East,Kasena Nankana West,District,10.895598,-1.30768,15015,42880,53.6,47.4,37336,12340,16879,15961,24454,26493,2576,4372,90735,0.588516008155618,0.1360004408442166,0.0765746404364357,0.7406511788582779,KASENA NANKANA WEST,0.0722108243234078,1256529.0709551882,0.411483991844382,78.09684574165308,3.59690420734025,-2.5073736399663957,,EXCLUDED
Upper East,Nabdam,District,10.8469045,-0.661562047243897,5352,29181,68.6,51.2,24677,10522,9547,8959,15580,16128,1008,1817,53039,0.5347385885857576,0.1983823224419766,0.0532626934896962,0.8450178090522109,NABDAM,0.0202603707747188,2617869.168820083,0.4652614114142424,67.27324334552794,5.345939704685837,-3.601116274139218,1.885331,NOT_SIGNIFICANT
Upper East,Pusiga,District,11.0854045,-0.1276855,15814,30610,40.8,45.4,44153,6809,17464,16645,19362,22108,1943,3011,80533,0.4517402803819552,0.0845491910148634,0.0615151552779605,0.6593572290194727,PUSIGA,0.0211659644514527,3804834.888800569,0.5482597196180448,94.1958041958042,3.2513845861893054,-1.4892973006719592,1.594242,NOT_SIGNIFICANT
Upper East,Talensi,District,10.6451057499999,-0.62587443176215,15187,39504,56.2,48.9,35409,16401,16765,15565,25355,24262,1729,3345,87021,0.5930982176715964,0.1884717481987106,0.0583077647924064,0.7223126291345925,TALENSI,0.0693087489110673,1255555.775673573,0.40690178232840357,75.38545256666062,3.8616705173875103,-2.471545529618899,1.530689,NOT_SIGNIFICANT
Upper East,Tempane,District,10.9030714,-0.0914351270233069,16027,35236,50.7,48.1,47667,15911,18264,17466,20421,24065,2583,4194,86993,0.4520593610980193,0.1828997735449978,0.0779028197671077,0.6873573532567349,TEMPANE,0.0319051060083241,2726616.861178995,0.5479406389019807,95.55140943218092,4.4418916044998475,-1.6023137665329399,1.705835,NOT_SIGNIFICANT
Upper West,Daffiama Bussie Issa,District,10.36748405,-2.26222672458466,10070,13695,38.7,44.4,21566,10188,7768,7221,10310,10968,845,1642,38754,0.4435155080765857,0.2628889921040409,0.0641740207462455,0.5762676204502419,DAFFIAMA BUSSIE ISSA,0.1202151819531547,322371.92815714073,0.5564844919234143,82.13177930256603,2.243527028292067,-0.10394447373582338,1.117268,NOT_SIGNIFICANT
Upper West,Jirapa Municipal,Municipal,10.5366328,-2.7008646,15207,42406,50.1,47.4,44829,11356,17123,16543,23894,27936,2004,3779,91279,0.5088793698441043,0.1244097766189375,0.0633552076600313,0.736049155572527,JIRAPA,0.0981630503172237,929871.2672947996,0.4911206301558957,76.11229017943276,3.636204497925278,-2.504785885140078,1.481614,NOT_SIGNIFICANT
Upper West,Lambussie Karni,District,10.846747,-2.708741,10758,19875,44.2,46.0,25646,5836,10644,9841,13368,14326,1048,1891,51118,0.4982980554794788,0.1141672209397863,0.0574944246645017,0.6488101067476251,LAMBUSSIE-KARNI,0.0671062489953993,761747.2406109985,0.5017019445205212,84.58149779735683,3.0039121374000923,-1.6001428208844426,1.405491,NOT_SIGNIFICANT
Upper West,Lawra Municipal,Municipal,10.61348995,-2.86412434170417,12718,24866,39.5,45.8,26943,3535,10757,10092,16108,17366,1460,2650,58433,0.5389078089435764,0.0604966371741995,0.0703369671247411,0.6616113239676458,LAWRA,0.0435537145082722,1341630.6889025886,0.46109219105642363,74.56234689609846,2.358032855135086,-2.2137840242948026,1.436444,NOT_SIGNIFICANT
Upper West,Nadowli Kaleo,District,10.2868347,-2.6394776056347,16572,32214,40.6,47.2,34105,9882,14459,13812,20639,22624,1895,3628,77057,0.5574055569253928,0.1282427294081005,0.0716742151913518,0.6603123847005289,NADOWLI-KALEO,0.0934014999579542,825008.164051842,0.44259444307460716,78.11293715183876,2.78961212176437,-2.1197145694926927,1.418743,NOT_SIGNIFICANT
Upper West,Nandom,Municipal,10.8520701,-2.760077,11997,21466,31.8,44.8,22506,2685,9167,8698,15098,14682,1312,2371,51328,0.5615258728179551,0.0523106296758104,0.0717542082294264,0.6414846248094911,NANDOM,0.0334386543383296,1534989.999318377,0.4384741271820449,72.35728676964406,1.59776538122686,-2.0928987597931554,1.258269,NOT_SIGNIFICANT
Upper West,Sissala East Municipal,Municipal,10.59705475,-1.85050542952138,23696,25675,28.8,44.3,36973,13326,15883,15365,22675,23421,1310,1965,80619,0.5413860256267133,0.1652960220295463,0.0406231781589947,0.5200421299953414,SISSALA EAST,0.4209393420830762,191521.65630574175,0.45861397437328666,74.89370010413052,0.9940015437924501,-0.6099565485559567,1.289079,NOT_SIGNIFICANT
Upper West,Sissala West,District,10.7467085,-2.29346951572635,15085,22345,32.3,46.1,31815,7964,13593,12805,16844,17554,1119,1913,63828,0.5015510434292161,0.1247728269724885,0.0475026634079087,0.5969810312583489,SISSALA WEST,0.1695189135972121,376524.357344924,0.4984489565707839,85.55729984301414,2.3631446630299497,-1.3894702768442062,1.327712,NOT_SIGNIFICANT
Upper West,Wa East,District,10.06069,-2.50192,24065,29821,48.7,45.3,53226,28685,19492,18079,25357,24624,1772,2133,91457,0.4180215839137517,0.313644663612408,0.0426976611959718,0.5534090487325094,WA EAST,0.3544543469454266,258021.9449645545,0.5819784160862482,82.98353374282227,2.846240906121317,0.29685149748611805,1.433829,NOT_SIGNIFICANT
Upper West,Wa Municipal,Municipal,10.0623261,-2.5054273,55802,74417,16.5,43.4,54484,21847,35425,35028,60148,62830,2920,4321,200672,0.728492265986286,0.1088691994897145,0.0360837585712007,0.5714757447069936,WA MUNICIPAL,0.0478132921348049,4196991.90413881,0.271507734013714,63.177153637235925,-0.45633711848746095,-1.693050344279277,1.333199,NOT_SIGNIFICANT
Upper West,Wa West,District,9.8985772,-2.6832633,18605,38398,61.9,48.7,54974,29934,20291,19663,23133,27784,2456,3630,96957,0.4330063842734408,0.3087347999628701,0.0627700939591777,0.6736136694559935,WA WEST,0.1229552469171864,788555.2054993074,0.5669936157265592,90.42166663393367,4.868425326477101,-0.9327994123022012,1.534178,NOT_SIGNIFICANT
Volta,Adaklu,District,6.4470511,0.6286474,12326,12465,33.2,43.6,11060,10446,7153,6705,10721,11393,1089,1588,38649,0.7138347693342648,0.2702786618023752,0.0692644052886232,0.5028034367310718,ADAKLU,0.0654454433245257,590552.9558161959,0.2861652306657352,74.77163787645836,0.3830541228037496,-0.025853919875813362,-0.131145,NOT_SIGNIFICANT
Volta,Afadzato South,District,7.0222497,0.561946,21981,25555,32.5,43.7,14099,21171,13038,12572,20683,21229,2360,3264,73146,0.8072485166652995,0.2894348289721926,0.0768873212479151,0.537592561427129,AFADZATO SOUTH,0.0452432860038087,1616726.0705564632,0.1927514833347005,74.52280969650697,0.23156847863717556,-0.3312430359929923,-0.161488,NOT_SIGNIFICANT
Volta,Agortime-Ziope,District,6.42618935,0.732357165932429,15226,10905,25.7,43.4,11971,10152,6706,6716,11021,12218,1064,1828,39553,0.6973428058554345,0.2566682678937122,0.073117083407074,0.4173204240174505,AGOTIME ZIOPE,0.0257950568391409,1533355.799394207,0.3026571941445655,70.20095529067515,-0.4432337869874485,0.3400794392236727,0.062553,NOT_SIGNIFICANT
Volta,Akatsi North,District,6.3108306,0.876439062223793,10667,10630,39.3,44.4,11624,16744,5827,5631,8505,10014,913,1865,32755,0.6451228820027477,0.511189131430316,0.0848114791634865,0.4991313330516035,AKATSI NORTH,0.025659160158924,1276542.1704033497,0.3548771179972523,76.87240131756575,1.1497406341718952,1.2288160930585856,0.212805,NOT_SIGNIFICANT
Volta,Akatsi South Municipal,District,8.25846,0.508747,28601,32012,30.1,44.5,26836,28973,15952,15568,24603,29179,2342,4489,92133,0.7087254295420751,0.3144692998165695,0.0741428152779134,0.5281375282530151,AKATSI SOUTH,0.043768902507236,2104987.667551594,0.29127457045792493,71.30824439403519,0.504253111996761,-0.2686146454748654,0.29702,NOT_SIGNIFICANT
Volta,Anloga,District,5.7936484,0.8984702,27359,36184,31.6,45.9,29252,41680,15986,15366,26025,29534,2698,5286,94895,0.691743505980294,0.4392222983297328,0.0841350966858106,0.5694411658247172,ANLOGA,0.019284527825323,4920784.208954837,0.308256494019706,70.80041037455678,1.1489951787472301,-0.1915493220679515,0.357827,NOT_SIGNIFICANT
Volta,Central Tongu,District,6.16884364999999,0.611561745917151,24532,28243,36.0,44.4,29161,26329,15476,15033,21648,25244,2067,3816,83284,0.6498607175447866,0.3161351520099899,0.0706378175880121,0.5351586925627665,CENTRAL TONGU,0.0557258619201428,1494530.4950033606,0.3501392824552134,77.60812078819414,1.1393229384575458,0.0014888356808377377,0.335375,NOT_SIGNIFICANT
Volta,Ho Municipal,Municipal,6.6126598,0.4688932,61676,68181,12.5,42.1,19028,24246,25031,25254,55464,63965,4215,6213,180142,0.8943722174728825,0.1345938204305492,0.0578876663965094,0.5250467822296834,HO MUNICIPAL,0.04691492874564,3839758.57613854,0.10562778252711746,50.83606159308041,-2.0641245178050034,-1.5130794060733752,-0.381212,NOT_SIGNIFICANT
Volta,Ho West,District,6.590707,0.46714,28395,28088,27.9,42.7,15702,25710,13846,12843,23357,25820,2929,4377,83172,0.8112105035348435,0.3091184533256384,0.087842062232482,0.4972823681461679,HO WEST,0.0819851984266724,1014475.802902265,0.18878949646515653,69.12784431746547,-0.5412986290820994,0.0701960543398235,,EXCLUDED
Volta,Hohoe Municipal,Municipal,7.153187,0.477735,37248,39037,18.8,42.8,18377,22140,19113,19074,33152,36705,2628,3800,114472,0.8394629254315465,0.1934097421203438,0.056153469844154,0.5117257652225208,HOHOE MUNICIPAL,0.0559979812254045,2044216.550222128,0.16053707456845345,63.86618377542695,-1.0984537543952124,-0.8785649108318977,-0.259992,NOT_SIGNIFICANT
Volta,Keta Municipal,Municipal,5.9215688,0.9910728,23209,31662,25.2,45.0,19817,21523,12367,11624,22241,25780,2378,4472,78862,0.7487129415941771,0.2729197839263523,0.0868605919200628,0.5770261157988738,KETA MUNICIPAL,0.0421794787825615,1869676.9679525828,0.2512870584058229,64.22398533974719,0.28050112952726297,-1.1559692461287845,0.345097,NOT_SIGNIFICANT
Volta,Ketu North Municipal,Municipal,6.192057,0.981151401381816,38123,37133,27.2,44.3,36305,43719,20368,19369,30658,35821,2972,5805,114993,0.6842851303992417,0.3801883592914351,0.0763263850843094,0.493422451366004,KETU NORTH,0.0345995410568407,3323541.194118372,0.31571486960075834,72.97642864664029,0.3452640256605314,0.3457699941749051,0.323236,NOT_SIGNIFICANT
Volta,Ketu South Municipal,Municipal,6.07748514999999,1.0706219725046,74834,84471,25.6,45.4,76082,121139,47547,46270,68949,77440,4781,8135,253122,0.699425573438895,0.4785794992138178,0.0510267776013147,0.5302470104516493,KETU SOUTH,0.02271742195845,11142197.405275902,0.300574426561105,72.9105328952312,0.6850633574580416,0.3043839498810682,0.23876,NOT_SIGNIFICANT
Volta,Kpando Municipal,Municipal,7.0000115,0.318327973849328,18561,21639,23.4,43.4,10992,11556,9306,9046,18573,18164,1415,2048,58552,0.8122694357152617,0.1973630277360295,0.0591440087443639,0.5382835820895523,KPANDO MUNICIPAL,0.0257025139276897,2278065.101519932,0.18773056428473833,59.381549936031796,-0.7239495021792604,-1.1375721409706439,-0.189162,NOT_SIGNIFICANT
Volta,North Dayi,District,6.91384645,0.22267318926127,12527,14591,30.1,43.6,7589,8976,6244,5906,11277,11896,1554,2391,39268,0.806738311093002,0.228583070184374,0.1004634817153916,0.538055903827716,NORTH DAYI,0.0378587918910761,1037222.7437414892,0.19326168890699802,69.45583221853019,-0.06513647388999301,-0.7367811150653737,-0.053719,NOT_SIGNIFICANT
Volta,North Tongu,District,6.14399495,0.297188924896433,33245,36059,38.4,45.4,34242,45575,21452,20654,29254,33512,2535,4003,111410,0.6926487747957992,0.409074589354636,0.058684139664303,0.5203018584785871,NORTH TONGU,0.092454827228748,1205020.9095556885,0.3073512252042008,77.5005576267406,1.2729381457205633,0.3083321309445476,0.458945,NOT_SIGNIFICANT
Volta,South Dayi,District,6.5449087,0.240546020283373,16500,21760,29.0,44.3,12238,12038,9829,9429,17376,17233,1509,2142,57518,0.7872318230814701,0.2092910045550958,0.0634757814944886,0.5687401986408782,SOUTH DAYI,0.0292949682504186,1963408.852616797,0.2127681769185299,66.19376462769799,0.14454220340454188,-1.2280281297583675,0.058306,NOT_SIGNIFICANT
Volta,South Tongu,District,5.96577275,0.641061228110148,33924,38903,32.4,45.2,32459,38843,20408,19879,29659,35644,2421,5103,113114,0.71304171013314,0.343396926994006,0.066516965185565,0.5341837505320829,SOUTH TONGU,0.052544777509488,2152716.3185641984,0.28695828986686,73.21409429888367,0.8359673321949602,-0.2546534063486539,0.470118,NOT_SIGNIFICANT
Western,Ahanta West Municipal,Municipal,4.8514282,-1.98665461803006,49812,47885,27.2,44.7,38266,70901,27867,27576,45127,47048,2225,3297,153140,0.7501240694789082,0.462981585477341,0.036058508554264,0.4901378752674084,AHANTA WEST MUNICIPAL,0.0451931290286831,3388568.2025425886,0.2498759305210918,66.1404936262544,0.003922148893827198,0.46397686737025323,-0.503577,NOT_SIGNIFICANT
Western,Effia Kwesimintsim Municipal,Municipal,4.96766095,-1.80360599719917,63585,57847,9.3,42.5,15630,40568,26270,26273,56495,57599,3099,4239,173975,0.9101595056761028,0.2331829285816927,0.0421784739186664,0.4763736082745899,EFFIA KWESIMINTSIM MUNICIPAL,0.0085540488149664,20338322.09322996,0.08984049432389718,52.48391677038232,-2.2855701157942607,-0.838754675771744,-0.602214,NOT_SIGNIFICANT
Western,Ellembelle,District,5.14952214999999,-2.42142536190491,35570,42516,33.3,42.8,31771,36622,21811,20996,37019,36768,1756,2543,120893,0.7371973563399039,0.3029290364206364,0.0355603715682463,0.5444766027200779,ELLEMBELLE,0.0812099957730181,1488646.7958685262,0.2628026436600961,63.84051391166465,-0.030179251375980595,-0.2011593435584673,-0.064993,NOT_SIGNIFICANT
Western,Jomoro Municipal,Municipal,5.199616,-2.61473434715296,39912,40959,31.2,43.7,36331,40184,23402,22303,37306,38855,1941,2769,126576,0.7129708633548224,0.3174693464795854,0.0372108456579446,0.5064732722483956,JOMORO,0.1219300773486313,1038103.1715257972,0.2870291366451776,66.1952968054516,0.08094894914621241,-0.02625588035432288,-0.157699,NOT_SIGNIFICANT
Western,Mpohor,District,4.9705877,-1.8927971,17795,16391,31.4,44.3,13671,25220,8995,8847,16862,15461,890,973,52028,0.7372376412700854,0.4847389866994695,0.0358076420389021,0.4794652781840519,MPOHOR,0.0427878678711186,1215952.1515938477,0.2627623587299146,60.962781919995045,-0.10073387089920542,0.7089695859994339,-0.484342,NOT_SIGNIFICANT
Western,Nzema East Municipal,Municipal,5.08576495,-2.22263416898707,32893,27539,38.2,43.0,32560,46450,17234,16955,30240,27556,1116,1520,94621,0.655890341467539,0.4909058242884772,0.0278585092104289,0.4557022769393699,NZEMA EAST,0.0884072608053871,1070285.394412245,0.344109658532461,63.7154820402796,0.1107338879753026,1.4385567893381854,-0.094164,NOT_SIGNIFICANT
Western,Prestea/Huni Valley Municipal,Municipal,5.44481979999999,-2.04050432321944,73612,73038,29.5,43.8,59020,112064,41865,40786,72937,67695,2942,3076,229301,0.742609059707546,0.488720066637302,0.0262449793066755,0.4980429594272076,PRESTEA/HUNI VALLEY,0.1476613115376803,1552884.757775477,0.257390940292454,63.050372603674845,-0.1465596197100825,0.7174048604358193,-0.053088,NOT_SIGNIFICANT
Western,"Sekondi Takoradi Metropolitan Area (STMA)- Takoradi, Sekondi & Essikado-Ketan",Metropolitan,4.95328,-1.73308,85174,86453,10.1,42.6,23679,49217,36872,36883,77931,82625,4541,6530,245382,0.903501479326112,0.2005729841634675,0.0451174087748897,0.5037261037016321,SEKONDI TAKORADI METROPOLIS,0.0070791318115626,34662725.10976677,0.09649852067388798,52.83265651859787,-2.0827216477916064,-1.1699896686600397,-0.521326,NOT_SIGNIFICANT
Western,Shama,District,5.0606463,-1.64288365568687,38185,36098,22.0,44.4,24535,35638,21733,21208,33497,35874,1980,2932,117224,0.7906998566846379,0.3040162424076981,0.0419026820446324,0.485952371336645,SHAMA,0.0157998852002698,7419294.413480787,0.20930014331536206,68.98127459601274,-0.3692981816726385,-0.3016498071602687,-0.289133,NOT_SIGNIFICANT
Western,Tarkwa-Nsuaem Municipal,Municipal,5.310935,-1.992426,74018,73132,18.2,43.5,39035,62189,36129,35830,74620,67080,2538,2912,219109,0.8218466607943992,0.283826771150432,0.0248734648051882,0.4969894665307509,TARKWA NSUAEM,0.0738466337770828,2967081.7584104547,0.17815333920560084,54.628793225123495,-1.2502281061175493,-0.6439263801543144,-0.141143,NOT_SIGNIFICANT
Western,Wassa Amenfi Central,District,5.7890318,-2.0839856,39525,34394,37.6,43.0,40255,55487,22543,21537,38197,32215,1827,1680,117999,0.6588530411274671,0.4702327985830388,0.0297205908524648,0.4652930910861889,WASSA AMENFI CENTRAL,0.1507020272698307,782995.438997803,0.3411469588725329,67.58365051411691,0.24464766760913695,1.3334269193598889,-0.139899,NOT_SIGNIFICANT
Western,Wassa Amenfi East Municipal,Municipal,5.87660585,-1.98975398510416,55415,62692,35.5,44.4,57887,82600,31302,30287,61347,51720,2634,2406,179696,0.6778614994212449,0.4596652123586501,0.0280473688896803,0.5308068107732818,WASSA AMENFI EAST,0.1272354022489086,1412311.3286384204,0.32213850057875515,58.928776742993094,0.4344586254360316,0.3383431341192552,-0.129155,NOT_SIGNIFICANT
Western,Wassa Amenfi West Municipal,Municipal,5.7735167,-2.5321498,48494,36169,24.9,42.0,39203,36463,23579,22758,43434,37508,1924,1797,131000,0.7007404580152672,0.2783435114503816,0.0284045801526717,0.4272114146675643,WASSA AMENFI WEST,0.1182362017786893,1107951.693553228,0.2992595419847328,61.844283561068416,-1.0264858994379424,0.5102192423076604,-0.139036,NOT_SIGNIFICANT
Western,Wassa East,District,5.3622378,-1.62070954561049,37479,24536,38.0,42.0,31560,53204,19411,18215,29878,28067,1911,2159,99641,0.6832629138607601,0.5339569052899911,0.0408466394355737,0.3956462146254938,WASSA EAST,0.1348301142976629,739011.4628251647,0.3167370861392399,71.95789110363276,-0.20539204518326673,2.362916842890292,-0.145534,NOT_SIGNIFICANT
Western North,Aowin Municipal,Municipal,5.69311555,-2.7557437678514,48339,36622,37.1,41.9,51625,44974,24663,23633,43488,37969,1980,1524,133257,0.6125907081804334,0.3374982177296502,0.0262950539183682,0.431044832334836,AOWIN,0.2130159009340637,625573.0178623986,0.3874092918195666,63.591833728224714,-0.20543601205282166,1.130905800135106,-0.136245,NOT_SIGNIFICANT
Western North,Bia East,District,6.817878,-3.00681786775424,20133,12438,32.9,41.5,22623,23293,10619,9883,16617,14414,918,622,53073,0.5737380589000056,0.4388860625930322,0.0290166374616094,0.3818734457032329,BIA EAST,0.0640547844792092,828556.3745394592,0.4262619410999944,71.03219361283878,-0.27558073955321793,2.1648815716965895,-0.45931,NOT_SIGNIFICANT
Western North,Bia West,District,6.56894165,-3.06628883975843,38243,33676,24.5,41.3,11991,8269,22464,21498,35895,33204,1596,1224,115881,0.8965231573769643,0.0713576859019166,0.0243353094985372,0.4682490023498658,BIA WEST,0.1051718080404757,1101825.6903542322,0.10347684262303569,67.70286111231711,-1.5255382098256627,-0.80056820917548,-0.39014,NOT_SIGNIFICANT
Western North,Bibiani Anhwiaso Bekwai Municipal,Municipal,6.29602085,-2.23398871855776,54933,53406,25.8,41.9,22658,14946,30105,29527,50059,52106,2634,3540,167971,0.865107667394967,0.0889796452959141,0.0367563448452411,0.4929526763215462,BIBIANI-ANHWIASO-BEKWAI MUNICIPAL,0.0681331265035716,2465335.272573977,0.13489233260503297,64.4114912151911,-1.226001065144052,-1.0000823994688937,-0.190715,NOT_SIGNIFICANT
Western North,Bodi,District,6.24012575,-2.87347603617418,23327,18638,18.6,41.7,38497,24824,12137,11646,20465,19320,1051,1129,65748,0.4144764859767598,0.3775628155989536,0.0331569021110908,0.4441320147742166,BODI,0.0541001122515591,1215302.4691386863,0.5855235140232402,65.25826316450923,-0.16660309813603813,1.3371275953737123,-0.119807,NOT_SIGNIFICANT
Western North,Juaboso,District,6.3415722,-2.8235416,29440,27877,18.9,42.3,39907,30473,16061,15436,28339,26307,1322,1349,88814,0.5506676875267413,0.3431103204449749,0.0300740874186502,0.4863653017429384,JUABOSO,0.111908121671771,793633.1936701916,0.44933231247325867,62.52607693152289,-0.3726533301540272,0.5211844794553296,-0.25813,NOT_SIGNIFICANT
Western North,Sefwi Akontombra,District,6.0425529,-2.8760069,25005,16732,24.5,42.2,29528,18022,13046,11906,20785,18801,1192,959,66689,0.5572283285099492,0.2702394697776245,0.032254194844727,0.4008912954932074,SEFWI AKONTOMBRA,0.091458682624788,729170.791510234,0.4427716714900508,68.46612438740969,-0.4293058067206998,0.9246391579964792,-0.177016,NOT_SIGNIFICANT
Western North,Sefwi Wiawso Municipal,Municipal,6.30540429999999,-2.51755838219394,51890,46609,33.3,42.4,42460,37320,26975,25746,46395,46745,2535,2824,151220,0.7192170347837588,0.2467927522814442,0.0354384340695675,0.4731926212448857,SEFWI-WIAWSO,0.0826503791455737,1829634.6800013257,0.28078296521624124,62.35774103500107,-0.4599174305622895,0.07416632224802512,-0.271256,NOT_SIGNIFICANT
Western North,Suaman,District,6.10824159999999,-3.00869712063798,12182,13089,37.5,41.3,19265,22574,6746,6251,13440,11022,421,388,38268,0.4965767743284206,0.5898923382460541,0.0211403783840284,0.5179454710933481,SUAMAN,0.0326645577311293,1171545.021824392,0.5034232256715794,56.43855776306107,0.3019542934641088,1.966762405302782,-0.09225,NOT_SIGNIFICANT
